,Airport Name,Country,City,Latitude,Longitude
AAQ,Vityazevo,Russian Federation,Anapa,45.002097,37.347272
AAA,Anaa,French Polynesia,Anaa,-17.355,-145.508333
AAB,Arrabury,Australia,Arrabury,-26.690556,141.0475
AAC,Al Arish International Airport,Egypt,Al Arish,31.073333,33.835833
AAD,Ad-Dabbah,Sudan,Ad-Dabbah,17.592777777778,33.959166666667
AAE,Les Salines,Algeria,Annaba,36.822222,7.809444
AAF,Municipal,United States,Apalachicola,29.727607,-85.027442
AAG,Arapoti,Brazil,Arapoti,-24.103875,-49.789078
AAH,Aachen/Merzbruck,Germany,Aachen,50.823056,6.186111
AAI,Arraias,Brazil,Arraias,-13.025,-46.884
AAJ,Cayana Airstrip,Suriname,Awaradam,3.898611,-55.577778
AAK,Aranuka,Kiribati,Aranuka,0.185278,173.636667
AAL,Aalborg,Denmark,Aalborg,57.092789,9.849164
AAM,Mala Mala,South Africa,Mala Mala,-24.818111,31.544584
AAN,Al Ain,United Arab Emirates,Al Ain,24.261667,55.609167
AAO,Anaco,Venezuela,Anaco,9.430225,-64.470725
AAP,Andrau Airpark,United States,"Houston, TX",72.886944,-55.596111
AAR,Aarhus Airport,Denmark,Aarhus,56.300017,10.619008
AAS,Apalapsili,Indonesia,Apalapsili,-3.883,139.283
AAT,Altay,China,Altay,47.749,88.089
AAU,Asau,Samoa,Asau,-13.505778,-172.627972
AAV,Allah Valley,Philippines,Surallah,6.366817,124.751294
AAW,Abbottabad,Pakistan,Abbottabad,34.15,73.217
AAX,Araxa,Brazil,Araxa,-19.563247,-46.960358
AAY,Al Ghaydah,Yemen,Al Ghaydah,16.191666,52.175
AAZ,Ambriz,Angola,Ambriz,14.86555,-91.501981
ABA,Abakan,Russian Federation,Abakan,53.74,91.385
ABB,RAF Station,United Kingdom,Abingdon,51.690556,-1.316667
ABC,Los Llanos,Spain,Albacete,38.948528,-1.863517
ABD,Abadan,Iran,Abadan,30.371111,48.228333
ABF,Abaiang,Kiribati,Abaiang,1.798611,173.040556
ABG,Abingdon,Australia,Abingdon,-17.617,143.167
ABH,Alpha,Australia,Alpha,-23.646111,146.583611
ABI,Municipal,United States,Abilene,32.411306,-99.681889
ABJ,Felix Houphouet Boigny,Cote D&#039;Ivoire,Abidjan,5.261386,-3.926294
ABK,Kabri Dar,Ethiopia,Kabri Dar,6.734,44.253
ABL,Ambler,United States,Ambler,67.106314,-157.857472
ABM,Bamaga Injinoo,Australia,"Bamaga, Queensland",-10.950833,142.459444
ABN,Albina,Suriname,Albina,5.513,-54.05
ABO,Aboisso,Cote D&#039;Ivoire,Aboisso,5.433,-3.267
ABP,Atkamba,Papua New Guinea,Atkamba,-6.05,141.083
ABQ,Albuquerque International,United States,Albuquerque,35.040194,-106.609194
ABR,Municipal,United States,Aberdeen,45.449056,-98.421833
ABS,Abu Simbel,Egypt,Abu Simbel,22.375953,31.611722
ABT,Al-Aqiq,Saudi Arabia,Al-Baha,20.296139,41.634277
ABU,Atambua,Indonesia,Atambua,-9.074444,124.904444
ABV,Nnamdi Azikiwe International Airport,Nigeria,Abuja,9.006792,7.263172
ABW,Abau,Papua New Guinea,Abau,-10.2,148.733
ABX,Albury,Australia,Albury,-36.067778,146.958056
ABY,Dougherty County,United States,Albany,31.535515,-84.194473
ABZ,Dyce,United Kingdom,Aberdeen,57.201944,-2.197778
ACB,Antrim County,United States,Bellaire,44.988576,-85.198355
ACC,Kotoka,Ghana,Accra,5.605186,-0.166786
ACD,Acandi,Colombia,Acandi,8.5,-73.633
ACE,Lanzarote,Spain,Arrecife,28.945464,-13.605225
ACH,Altenrhein,Switzerland,Altenrhein,47.485033,9.560775
ACI,The Blaye,United Kingdom,Alderney,49.706111,-2.214722
ACJ,Anuradhapura,Sri Lanka,Anuradhapura,32.110799,-84.188848
ACK,Nantucket Memorial,United States,Nantucket,41.253111,-70.060306
ACL,Aguaclara,Colombia,Aguaclara,4.749,-72.994
ACM,Arica,Colombia,Arica,-2.133,-71.783
ACN,International,Mexico,Ciudad Acuna,29.333917,-101.100892
ACO,Ascona,Switzerland,Ascona,46.157778,8.781944
ACP,Sahand,Iran,Sahand,37.348017,46.127903
ACR,Araracuara,Colombia,Araracuara,-0.601111,-72.397778
ACS,Achinsk,Russian Federation,Achinsk,56.268333,90.570833
ACT,Municipal,United States,Waco,31.6117,-97.230284
ACU,Achutupo,Panama,Achutupo,9.183,-78.017
ACV,Arcata,United States,Arcata,40.978111,-124.108611
ACX,Xingyi,China,Xingyi,25.155,104.971
ACY,Atlantic City Intl,United States,Atlantic City,39.457583,-74.577167
ACZ,Zabol A/P,Iran,Zabol,31.098333,61.543889
ADA,Adana,Turkey,Adana,36.982166,35.280388
ADB,Adnan Menderes,Turkey,Izmir,38.292392,27.156953
ADC,Andakombe,Papua New Guinea,Andakombe,46.45027,-95.210955
ADD,Bole International,Ethiopia,Addis Ababa,8.977889,38.799319
ADE,International,Yemen,Aden,12.829542,45.028792
ADF,Adiyaman,Turkey,Adiyaman,37.731369,38.468936
ADG,Lenawee County,United States,Adrian,41.867674,-84.077306
ADH,Aldan,Russian Federation,Aldan,58.602778,125.408889
ADI,Arandis,Namibia,Arandis,-22.462223,14.98
ADJ,Marka International Airport,Jordan,Amman,31.972703,35.991569
ADK,Adak Island NS,United States,Adak Island,51.877964,-176.646031
ADL,Adelaide International Airport,Australia,Adelaide,-34.945,138.530556
ADM,Ardmore Municipal Arpt,United States,Ardmore,34.30425,-97.020583
ADN,Andes,Colombia,Andes,5.656,-75.879
ADO,Andamooka,Australia,Andamooka,-30.437778,137.137222
ADP,Ampara,Sri Lanka,Ampara,8.301486,80.4279
ADQ,Kodiak Airport,United States,Kodiak,57.749968,-152.493855
ADR,Andrews,United States,Andrews,33.4517,-79.526177
ADS,Addison Airport,United States,Dallas,32.968559,-96.836448
ADT,Ada,United States,Ada,34.804262,-96.6712
ADU,Ardabil,Iran,Ardabil,38.325678,48.424356
ADV,Andover,United Kingdom,Andover,51.207,-1.528
ADW,Andrews AFB,United States,Camp Springs,38.810833,-76.867
ADX,Leuchars,United Kingdom,St Andrews,56.372889,-2.868444
ADY,Alldays,South Africa,Alldays,-22.679017,29.055517
ADZ,San Andres Island,Colombia,San Andres Island,12.583683,-81.710919
AEA,Abemama Atoll,Kiribati,Abemama Atoll,0.490833,173.828611
AED,Aleneva,United States,Aleneva,58.03333333,-152.9
AEG,Aek Godang,Indonesia,Aek Godang,1.400103,99.430453
AEH,Abecher,Chad,Abecher,13.847,20.844333
AEI,Algeciras,Spain,Algeciras,0.0,0.0
AEK,Aseki,Papua New Guinea,Aseki,-7.35,146.183
AEL,Albert Lea,United States,Albert Lea,43.681528,-93.36725
AEO,Aioun El Atrouss,Mauritania,Aioun El Atrouss,16.711293,-9.637883
AEP,Arpt. Jorge Newbery,Argentina,Buenos Aires,-34.559175,-58.415606
AER,Adler - Sochi,Russian Federation,Adler,43.449928,39.956589
AES,Vigra,Norway,Aalesund,62.560372,6.110164
AET,Allakaket,United States,Allakaket,66.551833,-152.622167
AEU,Abu Musa,Iran,Abu Musa,25.875742,55.032994
AEX,Alexandria International,United States,"Alexandria, LA",31.327372,-92.548556
AEY,Akureyri,Iceland,Akureyri,65.65861,-18.072222
AFA,San Rafael,Argentina,San Rafael,-34.588314,-68.403854
AFD,Port Alfred,South Africa,Port Alfred,-33.554167,26.879722
AFF,USAF Academy Airstrip,United States,Colorado Springs,38.969715,-104.812831
AFI,Amalfi,Colombia,Amalfi,6.916667,-75.066667
AFK,Kondavattavan Tank,Sri Lanka,Ampara,40.605444,-95.86775
AFL,Alta Floresta,Brazil,Alta Floresta,-9.866092,-56.106206
AFN,Municipal,United States,Jaffrey,42.805134,-72.003022
AFO,Municipal,United States,Afton,42.708778,-110.942167
AFR,Afore,Papua New Guinea,Afore,-9.133,148.383
AFS,Zarafshan,Uzbekistan,Zarafshan,41.613611,64.232777
AFT,Afutara Aerodrome,Solomon Islands,Afutara,-9.191111,160.949167
AFW,Fort Worth Alliance,United States,"Fort Worth, TX",32.987639,-97.318806
AFY,Afyon,Turkey,Afyon,38.726425,30.601114
AFZ,Sabzevar,Iran,Sabzevar,36.168083,57.595183
AGA,Agadir Almassira,Morocco,Agadir,30.324997,-9.413067
AGB,Augsburg - Muehlhausen,Germany,Munich,48.425158,10.931764
AGC,Allegheny County,United States,Pittsburgh,40.354401,-79.930169
AGD,Anggi,Indonesia,Anggi,-1.383,133.867
AGE,Flugplatz,Germany,Wangerooge,53.788333,7.920556
AGF,La Garenne,France,Agen,44.174714,0.590619
AGG,Angoram,Papua New Guinea,Angoram,-4.05,144.067
AGH,Angelholm,Sweden,Angelholm/Helsingborg,56.296072,12.847139
AGI,Wageningen,Suriname,Wageningen,5.833,-56.65
AGJ,Aguni,Japan,Aguni,26.592499,127.240833
AGK,Kagua,Papua New Guinea,Kagua,-6.383,143.85
AGL,Wanigela,Papua New Guinea,Wanigela,-9.333,149.15
AGM,Tasiilaq,Greenland,Tasiilaq,65.612222,-37.618333
AGN,Angoon,United States,Angoon,57.503555,-134.585094
AGO,Municipal,United States,Magnolia,33.227468,-93.216992
AGP,Pablo Ruiz Picasso,Spain,Malaga,36.6749,-4.499106
AGQ,Agrinion,Greece,Agrinion,38.602022,21.351208
AGR,Kheria,India,Agra,27.155831,77.960892
AGS,Bush Field,United States,Augusta,33.369943,-81.9645
AGT,Alejo Garcia,Paraguay,Ciudad Del Este,-25.4555,-54.843592
AGU,Aguascalients,Mexico,Aguascalientes,21.705558,-102.317858
AGV,Acarigua,Venezuela,Acarigua,9.553422,-69.237536
AGW,Agnew,Australia,Agnew,-12.145556,142.149167
AGX,Agatti Island,India,Agatti Island,10.823656,72.176042
AGY,Argyle Downs,Australia,Argyle Downs,-16.333,128.767
AGZ,Aggeneys,South Africa,Aggeneys,-29.281767,18.813869
AHA,Naha Air Force Base,Japan,Okinawa,26.2,127.65
AHB,Abha,Saudi Arabia,Abha,18.240367,42.656625
AHC,Amedee AAF,Norway,Herlong,40.265918,-120.150613
AHD,Downtown,United States,Ardmore,34.146989,-97.122652
AHE,Ahe Airport,French Polynesia,Ahe,-14.427778,-146.255
AHF,Municipal,Guatemala,Arapahoe,40.339451,-99.906513
AHH,Municipal,United States,Amery,45.281148,-92.375392
AHI,Amahai,Indonesia,Amahai,-3.348,128.926
AHL,Aishalton,Guyana,Aishalton,2.473604,-59.32111
AHN,Athens,Greece,Athens,33.948595,-83.326347
AHO,Fertilia,Italy,Alghero,40.632133,8.290772
AHS,Ahuas,Honduras,Ahuas,15.472222,-84.352222
AHT,Amchitka,United States,Amchitka,51.5,179.0
AHU,Charif Al Idrissi,Morocco,Al Hoceima,35.177103,-3.839525
AHY,Ambatolahy,Madagascar,Ambatolahy,-20.0,45.533
AHZ,Alpe D Huez,France,Alpe D Huez,45.088333,6.084722
AIA,Alliance,United States,Alliance,42.053222,-102.803778
AIB,Anita Bay,United States,Anita Bay,56.233333333333,-132.38333333333
AIC,Airok,Marshall Islands,"Airok, Ailinglaplap",7.1,171.233
AID,Municipal,United States,Anderson,40.108611,-85.613
AIE,Aiome,Papua New Guinea,Aiome,-5.133,144.717
AIF,Assis,Brazil,Assis,-22.638564,-50.455914
AIG,Yalinga,Central African Republic,Yalinga,6.52,23.26
AIH,Aiambak,Papua New Guinea,Aiambak,-7.35,141.26666666667
AII,Alisabieh,Djibouti,Alisabieh,11.133,42.717
AIK,Municipal,United States,Aiken,33.649376,-81.685036
AIL,Ailigandi,Panama,Ailigandi,9.217,-78.017
AIM,Ailuk Island,Marshall Islands,Ailuk Island,10.2,169.983
AIN,Wainwright,United States,Wainwright,70.638,-159.99475
AIO,Municipal,United States,Atlantic,41.403833,-95.04875
AIP,Ailinglapalap Island,Marshall Islands,Ailinglapalap Island,7.267,168.817
AIR,Aripuana,Brazil,Aripuana,-10.186389,-59.4575
AIS,Arorae Island,Kiribati,Arorae Island,-2.616111,176.8025
AIT,Aitutaki,Cook Islands,Aitutaki,-18.830922,-159.764233
AIU,Atiu Island,Cook Islands,Atiu Island,-19.967778,-158.119167
AIV,George Downer,United States,Aliceville,33.106465,-88.197792
AIW,Ai-ais,Namibia,Ai-ais,-27.983333333333,17.583055555556
AIY,Bader Field,United States,Atlantic City,39.366666666667,-74.45
AIZ,Lee C Fine Memorial,United States,Kaiser/Lake Ozark,38.096035,-92.549488
AJA,Campo Dell Oro,France,Ajaccio,41.923889,8.8025
AJF,Jouf,Saudi Arabia,Sakaka Al Jouf,29.785133,40.100006
AJI,A&amp;#287;ri,Italy,Agri,39.654569,43.02715
AJJ,Akjoujt,Mauritania,Akjoujt,19.731667,-14.379444
AJK,Araak,Iran,Araak,34.138147,49.847292
AJL,Aizawl,India,Aizawl,23.746603,92.802767
AJN,Ouani,Comoros,Anjouan,-12.131667,44.430279
AJO,Aljouf,Yemen,Aljouf,15.717,44.25
AJR,Arvidsjaur,Sweden,Arvidsjaur,65.590278,19.281944
AJS,Abreojos,Mexico,Abreojos,26.727222,-113.559444
AJU,Santa Maria,Brazil,Aracaju,-10.984,-37.070333
AJY,Agades,Niger,Agades,16.965997,8.000114
AKA,Ankang,China,Ankang,32.708056,108.931389
AKB,Atka,United States,Atka,52.220586,-174.206183
AKC,Fulton International,South Africa,Akron/Canton,41.0375,-81.466917
AKD,Akola,India,Akola,20.699006,77.058628
AKE,Akieni,Gabon,Akieni,-1.129436,13.920506
AKF,Kufrah,Libya,Kufrah,24.178728,23.313958
AKG,Anguganak,Papua New Guinea,Anguganak,-3.55,142.217
AKH,Prince Sultan Air Base,Saudi Arabia,Al Kharj,24.0627,47.580536
AKI,Akiak,United States,Akiak,60.902889,-161.230583
AKJ,Asahikawa,Japan,Asahikawa,43.670833,142.4475
AKK,Akhiok SPB,United States,Akhiok,56.938691,-154.182556
AKL,Auckland International,New Zealand,Auckland,-37.008056,174.791667
AKM,Zakouma,Chad,Zakouma,10.9,19.817
AKN,King Salmon,United States,King Salmon,58.676493,-156.648691
AKO,Colorado Plains Regional Airport,United States,"Akron, CO",40.175633,-103.222028
AKP,Anaktuvuk,United States,Anaktuvuk,68.133597,-151.743342
AKQ,Gunung Batin,Indonesia,Astraksetra,-4.612,105.232
AKR,Akure,Nigeria,Akure,7.246739,5.301008
AKT,Akrotiri Raf,Cyprus,Akrotiri,34.590416,32.987861
AKU,Aksu,China,Aksu,41.2625,80.291667
AKV,Akulivik,Canada,Akulivik,60.818611,-78.148611
AKW,Aghajari,Iran,Aghajari,30.74445,49.677183
AKX,Aktyubinsk,Kazakhstan,Aktyubinsk,50.245833,57.206667
AKY,Civil,Myanmar,Sittwe,20.132708,92.872628
ALA,Almaty,Kazakhstan,Almaty,43.352072,77.040508
ALB,Albany International,United States,Albany,42.749111,-73.801972
ALC,Alicante El Altet,Spain,Alicante,38.282169,-0.558156
ALD,Alerta,Peru,Alerta,-11.683,-69.333
ALE,Alpine,United States,Alpine,30.384222,-103.683583
ALF,Alta,Norway,Alta,69.976111,23.371667
ALG,Houari Boumediene,Algeria,Algiers,36.694444,3.216944
ALH,Albany,Australia,Albany,-34.943333,117.808889
ALI,International,United States,Alice,27.740889,-98.026944
ALJ,Kortdoorn,South Africa,Alexander Bay,-28.575001,16.533332
ALK,Asela,Ethiopia,Asela,7.967,39.117
ALL,Albenga,Italy,Albenga,44.050608,8.127428
ALM,Municipal,United States,Alamogordo,32.839944,-105.990583
ALN,Alton,United States,Alton,38.889917,-90.045989
ALO,Waterloo,United States,Waterloo,42.557081,-92.400344
ALP,Nejrab,Syria,Aleppo,36.180675,37.224358
ALQ,Federal,Brazil,Alegrete,-29.800274,-55.763054
ALR,Alexandra,New Zealand,Alexandra,-45.211667,169.373333
ALS,Municipal,United States,Alamosa,37.434917,-105.866556
ALT,Alenquer,Brazil,Alenquer,-1.917499,-54.721111
ALU,Alula,Somalia,Alula,11.95,50.733
ALV,Andorra La Vella H/P,Andorra,Andorra La Vella,42.506,1.522
ALW,Walla Walla,United States,Walla Walla,46.094778,-118.289
ALX,Thomas C Russell Fld,United States,Alexander City,32.914744,-85.962956
ALY,El Nohza,Egypt,Alexandria,31.183903,29.948889
ALZ,Alitak SPB,United States,Alitak,56.899487,-154.247847
AMA,Rick Husband Amarillo International,United States,"Amarillo, TX",35.219361,-101.705917
AMB,Ambilobe,Madagascar,Ambilobe,-13.188431,48.987978
AMC,Am Timan,Chad,Am Timan,11.034,20.274
AMD,Ahmedabad,India,Ahmedabad,23.077242,72.63465
AME,Alto Molocue,Mozambique,Alto Molocue,-15.633,37.7
AMF,Ama,Papua New Guinea,Ama,-4.1,141.667
AMG,Amboin,Papua New Guinea,Amboin,-4.6,143.5
AMH,Arba Mintch,Ethiopia,Arba Mintch,6.039389,37.590453
AMI,Selaparang,Indonesia,Mataram,-8.560708,116.094656
AMJ,Almenara,Brazil,Almenara,-16.165963,-40.684436
AMK,Animas Airpark,United States,Durango,37.203178,-107.869195
AML,Puerto Armuellas,Panama,Puerto Armuellas,8.268056,-82.864944
AMM,Queen Alia Intl,Jordan,Amman,31.722556,35.993214
AMN,Gratiot Community,United States,Alma,43.322139,-84.687944
AMO,Mao,Chad,Mao,14.145556,15.314444
AMP,Ampanihy,Madagascar,Ampanihy,-24.699722,44.734167
AMQ,Pattimura,Indonesia,Ambon,-3.710264,128.089136
AMR,Arno,Marshall Islands,Arno,7.083,171.683
AMS,Amsterdam-Schiphol,Netherlands,Amsterdam,52.308613,4.763889
AMT,Amata,Australia,Amata,-26.102778,131.206667
AMU,Amanab,Papua New Guinea,Amanab,-3.583,141.2
AMV,Amderma,Russian Federation,Amderma,69.763333,61.556389
AMW,Ames,United States,Ames,41.992056,-93.621833
AMX,Ammaroo,Australia,Ammaroo,-21.739167,135.243056
AMY,Ambatomainty,Madagascar,Ambatomainty,-17.683,45.617
AMZ,Ardmore,New Zealand,Ardmore,-37.029722,174.973333
ANA,Orange County Steel Salvage Heliport,United States,Anaheim,33.8125,-117.918889
ANB,Anniston Metropolitan,United States,Anniston,33.588167,-85.858111
ANC,Ted Stevens Anchorage International Airport,United States,Anchorage,61.174361,-149.996361
AND,Anderson,United States,Anderson,34.494583,-82.709389
ANE,Marce,France,Angers,47.560211,-0.312128
ANF,Cerro Moreno,Chile,Antofagasta,-23.444478,-70.4451
ANG,Brie-Champniers,France,Angouleme,45.729475,0.219153
ANH,Anuha Island Resort,Solomon Islands,Anuha Island Resort,-8.983,160.5
ANI,Aniak,United States,Aniak,61.581597,-159.543043
ANJ,Zanaga,Congo,Zanaga,-2.85,13.817
ANK,Etimesgut,Turkey,Ankara,39.949831,32.688622
ANL,Andulo,Angola,Andulo,-11.471389,16.710833
ANM,Antsirabato,Madagascar,Antalaha,-14.999411,50.320233
ANN,Annette Island,United States,Annette Island,55.042437,-131.572232
ANO,Angoche,Mozambique,Angoche,-16.181944,39.944722
ANP,Lee,United States,Annapolis,38.942878,-76.568399
ANQ,Tri-State Steuben Cty,United States,Angola,41.639698,-85.083493
ANR,Deurne,Belgium,Antwerp,51.189444,4.460278
ANS,Andahuaylas,Peru,Andahuaylas,-13.706408,-73.350378
ANT,St Anton,Austria,St Anton,0.0,0.0
ANU,V. C. Bird Intl,Antigua And Barbuda,St. John&#039;s,17.136667,-61.792778
ANV,Anvik,United States,Anvik,62.647328,-160.190067
ANW,Ainsworth,United States,Ainsworth,42.579228,-99.992967
ANX,Andenes,Norway,Andenes,69.2925,16.144167
ANY,Anthony,United States,Anthony,37.158522,-98.079647
ANZ,Angus Downs,Australia,Angus Downs,-25.034,132.276
AOA,Aroa,Papua New Guinea,Aroa,-9.017,146.8
AOB,Annanberg,Papua New Guinea,Annanberg,-4.917,144.65
AOC,Altenburg Nobitz,Germany,Altenburg,50.981817,12.506361
AOD,Abou Deia,Chad,Abou Deia,11.467,19.283
AOE,Anadolu University,Turkey,Eskisehir,39.811666666667,30.528611111111
AOG,Anshan,China,Anshan,41.105278,122.853889
AOH,Allen County,United States,Lima,40.707478,-84.027078
AOI,Falconara,Italy,Ancona,43.616342,13.362319
AOJ,Aomori,Japan,Aomori,40.734722,140.690833
AOK,Karpathos,Greece,Karpathos,35.421408,27.146008
AOL,Paso De Los Libres,Argentina,Paso De Los Libres,-29.689425,-57.152078
AON,Arona,Solomon Islands,Arona,-6.3,146.017
AOO,Martinsburg,United States,Martinsburg,40.296361,-78.320028
AOR,Alor Setar,Malaysia,Alor Setar,6.189667,100.398183
AOS,Amook,United States,Amook,57.466666666667,-153.83333333333
AOT,Corrado Gex,Italy,Aosta,45.738456,7.368719
AOU,Attopeu,Laos,Attopeu,14.8,106.833
APA,Arapahoe Co,United States,Denver,39.570111,-104.849306
APB,Apolo,Bolivia,Apolo,-14.733,-68.417
APC,Napa County,United States,Napa,38.213194,-122.280694
APE,San Juan Aposento,Peru,San Juan Aposento,-15.35,-75.167
APF,Naples,United States,Naples,26.152287,-81.775793
APG,Phillips AAF,United States,Aberdeen,39.466219,-76.168808
APH,Camp A P Hill,United States,Bowling Green,38.068833,-77.318333
API,Apiay,Colombia,Apiay,4.076069,-73.562731
APK,Apataki,French Polynesia,Apataki,-15.573611,-146.415278
APL,Nampula,Mozambique,Nampula,-15.105611,39.2818
APN,Alpena County Regional,United States,Alpena,45.078083,-83.560306
APO,Apartado,Colombia,Apartado,7.811817,-76.716325
APP,Asapa,Papua New Guinea,Asapa,-8.967,148.1
APQ,Arapiraca,Brazil,Arapiraca,-9.775358,-36.6292
APR,April River,Papua New Guinea,April River,-4.7,142.533
APS,Anapolis,Brazil,Anapolis,-16.362336,-48.927053
APT,Marion County,United States,Jasper,35.060678,-85.585317
APU,Apucarana,Brazil,Apucarana,-23.609511,-51.384486
APV,Apple Valley,United States,Apple Valley,34.575333,-117.186194
APW,Faleolo,Samoa,Apia,-13.829667,-171.997167
APX,Arapongas,Brazil,Arapongas,-23.352856,-51.491656
APY,Alto Parnaiba,Brazil,Alto Parnaiba,-9.083605,-45.950554
APZ,Zapala,Argentina,Zapala,-38.9755,-70.113581
AQA,Araraquara,Brazil,Araraquara,-21.812,-48.133028
AQB,Quiche Airport,Guatemala,Quiche,15.012222,-91.150556
AQG,Anqing,China,Anqing,30.582222,117.050278
AQI,Qaisumah,Saudi Arabia,Qaisumah,28.335192,46.125069
AQJ,King Hussein Intl,Jordan,Aqaba,29.611619,35.018067
AQM,Ariquemes,Brazil,Ariquemes,-10.177778,-62.826111
AQP,Rodriguez Ballon,Peru,Arequipa,-16.341072,-71.583083
AQS,Saqani,Fiji,Saqani,-16.45,179.733
AQY,Alyeska,United States,Alyeska,60.966096,-149.125789
ARA,Acadiana Regional,United States,New Iberia,30.037758,-91.883896
ARB,Municipal,United States,"Ann Arbor, MI",42.222984,-83.745607
ARC,Arctic Village,United States,Arctic Village,68.114669,-145.579415
ARD,Alor Island,Indonesia,Alor Island,-8.132336,124.597014
ARE,Arecibo,Puerto Rico,Arecibo,18.451111,-66.675556
ARF,Acaricuara,Colombia,Acaricuara,0.567,-72.4
ARG,Walnut Ridge,United States,Walnut Ridge,36.124667,-90.925111
ARH,Talagi,Russian Federation,Arkhangelsk,64.60028,40.716667
ARI,Chacalluta,Chile,Arica,-18.348531,-70.338742
ARJ,Arso,Indonesia,Arso,-2.917,140.783
ARK,Arusha,Tanzania,Arusha,-3.367794,36.633333
ARL,Arly,Burkina Faso,Arly,11.597,1.483
ARM,Armidale,Australia,Armidale,-30.528056,151.617222
ARN,Arlanda,Sweden,Stockholm,59.651944,17.918611
ARO,Arboletas,Colombia,Arboletas,8.833,-76.433
ARP,Aragip,Papua New Guinea,Aragip,-9.867,149.483
ARQ,Arauquita,Colombia,Arauquita,7.021058,-71.388864
ARR,Alto Rio Senguerr,Argentina,Alto Rio Senguerr,-45.017,-70.8
ARS,Aragarcas,Brazil,Aragarcas,-15.896733,-52.095564
ART,Watertown,United States,Watertown,43.991917,-76.02175
ARU,Aracatuba,Brazil,Aracatuba,-21.141342,-50.424722
ARV,Noble F. Lee,United States,Minocqua,45.927917,-89.730944
ARW,Arad,Romania,Arad,46.17655,21.262022
ARX,Asbury Park,United States,"Neptune, NJ",40.219444444444,-74.09
ARY,Ararat,Australia,Ararat,-37.309444,142.988611
ASA,Assab International,Eritrea,Assab,13.071783,42.645006
ASB,Ashgabat,Turkmenistan,Ashgabat,37.986814,58.360967
ASC,Ascension,Bolivia,Ascension,-15.717,-63.1
ASD,Andros Town,Bahamas,Andros Town,24.698283,-77.795611
ASE,Aspen,United States,Aspen,39.223167,-106.868861
ASF,Astrakhan,Russian Federation,Astrakhan,46.283333,48.006278
ASG,Ashburton,New Zealand,Ashburton,-43.903333,171.796667
ASH,Boire Field,United States,"Nashua, NH",42.78175,-71.514778
ASI,Wideawake Field,St. Helena,"Georgetown, Ascension Island",-7.969597,-14.393664
ASJ,Amami O Shima,Japan,Amami O Shima,28.430633,129.712542
ASK,Yamoussoukro,Cote D&#039;Ivoire,Yamoussoukro,6.903167,-5.365581
ASL,Harrison County,United States,Marshall,32.5205,-94.307778
ASM,Yohannes IV,Eritrea,Asmara,15.291853,38.910667
ASN,Talladega,United States,Talladega,33.569471,-86.05123
ASO,Asosa,Ethiopia,Asosa,10.01855,34.586253
ASP,Alice Springs,Australia,Alice Springs,-23.806667,133.902222
ASQ,Austin,United States,Austin,39.467981,-117.19537
ASR,Erkilet International Airport,Turkey,Kayseri,38.770386,35.495428
AST,Astoria,United States,Astoria,46.157972,-123.878694
ASU,Silvio Pettirossi,Paraguay,Asuncion,-25.23985,-57.519133
ASV,Amboseli,Kenya,Amboseli,-2.633,37.25
ASW,Aswan,Egypt,Aswan,23.964356,32.819975
ASX,Ashland,United States,Ashland,46.548528,-90.918972
ASY,Ashley,United States,Ashley,46.023863,-99.352614
ASZ,Asirim,Papua New Guinea,Asirim,-5.867,150.367
ATA,Anta,Peru,Anta,-9.347444,-77.598392
ATB,Atbara,Sudan,Atbara,17.709722,34.056944
ATD,Atoifi,Solomon Islands,Atoifi,-8.873333,161.011389
ATE,Antlers,United States,Antlers,34.192601,-95.649859
ATF,Chachoan,Ecuador,Ambato,-1.212067,-78.574636
ATG,Attock,Pakistan,Attock,33.9,72.25
ATH,Eleftherios Venizelos,Greece,Athens,37.936358,23.944467
ATI,Artigas,Uruguay,Artigas,-30.400706,-56.507869
ATJ,Antsirabe,Madagascar,Antsirabe,-19.836944,47.065278
ATK,Atqasuk,United States,Atqasuk,70.467276,-157.435736
ATL,Hartsfield-jackson Atlanta International,United States,"Atlanta, GA",33.63672,-84.428066
ATM,Altamira,Brazil,Altamira,-3.253906,-52.253978
ATN,Namatanai,Papua New Guinea,Namatanai,-3.667,152.433
ATO,Ohio University,Greece,Athens,39.211893,-82.229255
ATP,Airstrip,Papua New Guinea,Aitape,-3.133,142.333
ATQ,Raja Sansi,India,Amritsar,31.709594,74.797264
ATR,Mouakchott,Mauritania,Atar,20.506828,-13.043194
ATS,Artesia,United States,Artesia,32.852528,-104.467686
ATT,Atmautluak,United States,Atmautluak,60.866746,-162.273139
ATU,Casco Cove,United States,Attu Island,52.832542,173.175554
ATV,Ati,Chad,Ati,13.238889,18.313333
ATW,Outagamie County,United States,Appleton,44.258083,-88.519083
ATX,Atbasar,Kazakhstan,Atbasar,51.851667,68.363333
ATY,Watertown,United States,Watertown,44.913972,-97.154722
ATZ,Assiut,Egypt,Assiut,27.046508,31.011983
AUA,Reina Beatrix,Aruba,Aruba,12.501389,-70.015221
AUB,Itauba,Brazil,Itauba,-7.1,-41.983333333333
AUC,Arauca,Colombia,Arauca,7.068889,-70.736944
AUD,Augustus Downs,Australia,Augustus Downs,-18.5075,139.883611
AUE,Abu Rudeis,Egypt,Abu Rudeis,28.899017,33.202461
AUF,Auxerre Branches,France,Auxerre,47.846328,3.496578
AUG,Augusta,United States,Augusta,44.32065,-69.797318
AUH,Abu Dhabi International,United Arab Emirates,Abu Dhabi,24.432972,54.651138
AUI,Aua Island,Papua New Guinea,Aua Island,-1.45,143.067
AUJ,Ambunti,Papua New Guinea,Ambunti,-4.217,142.817
AUK,Alakanuk,United States,Alakanuk,62.680044,-164.659925
AUL,Aur Island,Marshall Islands,Aur Island,8.145277,171.173056
AUM,Austin,United States,Austin,43.662639,-92.932917
AUN,Auburn,United States,Auburn,38.954806,-121.081722
AUO,Auburn-Opelika,United States,Auburn,32.615111,-85.434
AUP,Agaun,Papua New Guinea,Agaun,-9.917,149.383
AUQ,Atuona,French Polynesia,Atuona,-9.768794,-139.011256
AUR,Aurillac,France,Aurillac,44.897583,2.416719
AUT,Atauro,Indonesia,Atauro,-8.267,125.602
AUU,Aurukun Mission,Australia,Aurukun Mission,-13.353889,141.720833
AUV,Aumo,Papua New Guinea,Aumo,-5.733333333333,148.5
AUW,Municipal,United States,Wausau,44.926285,-89.627002
AUX,Araguaina,Brazil,Araguaina,-7.227867,-48.240467
AUY,Aneityum,Vanuatu,Aneityum,-20.249167,169.771389
AUZ,Municipal Airport,United States,Aurora,41.771917,-88.475667
AVA,An Shun/Huang Guo Shu,China,An Shun,26.260556,105.873056
AVB,Aviano,Italy,Aviano,46.031889,12.596472
AVF,Avoriaz,France,Avoriaz,46.2,6.766666666667
AVG,Auvergne,Australia,Auvergne,-15.690278,130.008611
AVI,Maximo Gomez,Cuba,Ciego De Avila,22.027053,-78.789617
AVK,Arvaikheer,Mongolia,Arvaikheer,46.250397,102.802078
AVL,Asheville Regional Airport,United States,Fletcher,35.436194,-82.541806
AVN,Avignon-Caum,France,Avignon,43.906581,4.902028
AVO,Municipal,United States,Avon Park,27.5913,-81.528967
AVP,Wilkes-Barre/Scranton International Airport,United States,"Wilkes-Barre/Scranton, PA",41.338472,-75.723389
AVU,Avu Avu,Solomon Islands,Avu Avu,-9.867,160.4
AVV,Avalon,Australia,Geelong,-38.039444,144.469444
AVW,Avra Valley,United States,Tucson,32.409556,-111.218389
AVX,Avalon Bay,United States,Catalina Island,33.404997,-118.415769
AWA,Awassa,Ethiopia,Awassa,7.067222,38.490278
AWB,Awaba,Papua New Guinea,Awaba,-8.0,142.75
AWD,Aniwa,Vanuatu,Aniwa,-19.24,169.605
AWE,Alowe,Gabon,Alowe,-0.75,9.45
AWH,Awareh,Ethiopia,Awareh,8.267,44.183
AWK,Wake Island,US Minor Outlying Islands,Wake Island,19.28249,166.636661
AWM,Municipal,United States,West Memphis,35.135059,-90.234446
AWN,Alton Downs,Australia,Alton Downs,-26.533,139.267
AWP,Austral Downs,Australia,Austral Downs,-20.492778,137.766111
AWR,Awar,Papua New Guinea,Awar,-4.117,144.85
AWZ,Ahwaz,Iran,Ahwaz,31.337431,48.76195
AXA,Wallblake,Anguilla,Anguilla,18.204722,-63.053889
AXB,Alexandria Bay,United States,Alexandria Bay,44.316717,-75.899673
AXC,Aramac,Australia,Aramac,-22.967,145.233
AXD,Dimokritos,Greece,Alexandroupolis,40.855869,25.956264
AXE,Xanxere,Brazil,Xanxere,-26.883333333333,-52.383333333333
AXG,Algona,United States,Algona,43.077911,-94.271993
AXK,Ataq,Yemen,Ataq,14.551322,46.826183
AXL,Alexandria,Australia,Alexandria,-19.061667,136.713333
AXM,El Eden,Colombia,Armenia,4.453333,-75.765833
AXN,Alexandria,United States,Alexandria,45.866306,-95.394667
AXP,Springpoint Arpt,Turks and Caicos Islands,Spring Point,22.441828,-73.970858
AXR,Arutua,French Polynesia,Arutua,-15.246389,-146.620278
AXS,Municipal,United States,Altus,34.698806,-99.338472
AXT,Akita,Japan,Akita,39.615556,140.218611
AXU,Axum,Ethiopia,Axum,14.14675,38.772833
AXV,Neil Armstrong,United States,Wapakoneta,40.493556,-84.298083
AXX,Angel Fire,United States,Angel Fire,36.422,-105.289905
AYA,Ayapel,Colombia,Ayapel,8.283,-75.133
AYC,Ayacucho,Peru,Ayacucho,8.6,-73.6
AYD,Alroy Downs,Australia,Alroy Downs,-19.290833,136.079444
AYE,AAF Heliport,Haiti,Fort Devens,19.833333333333,-72.5
AYG,Yaguara,Colombia,Yaguara,1.544167,-73.933333
AYH,RAF Station,United Kingdom,Alconbury,52.366666666667,-0.266666666667
AYI,Yari,Colombia,Yari,-0.383,-72.267
AYK,Arkalyk,Kazakhstan,Arkalyk,50.318611,66.952777
AYL,Anthony Lagoon,Australia,Anthony Lagoon,-18.020556,135.540278
AYN,Anyang,China,Anyang,36.133889,114.343889
AYO,Ayolas,Uganda,Ayolas,2.05,33.75
AYP,Yanamilla,Peru,Ayacucho,-13.154819,-74.204417
AYQ,Connellan,Australia,Ayers Rock,-25.186111,130.975556
AYR,Ayr,Australia,Ayr,-19.584444,147.329167
AYS,Ware County,United States,Waycross,31.248397,-82.395395
AYT,Antalya,Turkey,Antalya,36.898731,30.800461
AYU,Aiyura,Papua New Guinea,Aiyura,-6.333,145.9
AYW,Ayawasi,Indonesia,Ayawasi,-1.133,132.467
AYZ,Zahns,United States,Amityville,40.666666666667,-73.416666666667
AZB,Amazon Bay,Papua New Guinea,Amazon Bay,-10.3,149.333
AZD,Yazd,Iran,Yazd,31.904908,54.276503
AZG,Apatzingan,Mexico,Apatzingan,19.093425,-102.393608
AZI,Bateen,United Arab Emirates,Abu Dhabi,24.428333,54.458084
AZN,Andizhan,Uzbekistan,Andizhan,40.727739,72.294019
AZO,Kalamazoo/Battle Creek Intl,United States,Kalamazoo,42.234389,-85.551556
AZP,Atizapan,Mexico,Mexico City,19.35,-99.116666666667
AZR,Adrar,Algeria,Adrar,27.839167,-0.185278
AZT,Zapatoca,Colombia,Zapatoca,6.767,-73.267
AZZ,Ambriz,Angola,Ambriz,-7.862222,13.116111
DEN,Denver International,United States,Denver,39.861656,-104.673178
DFW,Dallas/Fort Worth International,United States,"Dallas, TX",32.896828,-97.037996
LAX,Los Angeles International,United States,"Los Angeles, Ca",33.942522,-118.407161
ORD,Chicago O'hare International,United States,"Chicago, Il",41.981649,-87.906671
BAA,Bialla,Papua New Guinea,Bialla,-5.330556,151.007778
BAB,Beale AFB,United States,Marysville,39.136089,-121.436567
BAC,Barranca De Upia,Colombia,Barranca De Upia,4.567,-72.95
BAD,Barksdale AFB,United States,Shreveport,32.501931,-93.662628
BAE,Barcelonnette,France,Barcelonnette,44.388333,6.610278
BAF,Barnes,United States,Westfield,42.157947,-72.715875
BAG,Loakan,Philippines,Baguio,16.375103,120.619636
BAH,Bahrain International,Bahrain,Manama,26.270834,50.63361
BAI,Buenos Aires,Costa Rica,Buenos Aires,9.163606,-83.329872
BAJ,Bali,Papua New Guinea,Bali,-4.883,149.133
BAL,Batman,Turkey,Batman,37.928969,41.116583
BAM,Lander County,United States,Battle Mountain,40.599046,-116.874336
BAN,Basongo,Democratic Republic Of Congo,Basongo,-4.317,20.433
BAO,Udorn,Thailand,Ban Mak Khaen,17.383,102.8
BAP,Baibara,Papua New Guinea,Baibara,-10.333,149.633
BAQ,E Cortissoz,Colombia,Barranquilla,10.889461,-74.780678
BAR,Baker Aaf,United States,Baker Island,0.216666666667,-176.51666666667
BAS,Balalae,Solomon Islands,Balalae,-6.990556,155.885833
BAT,Airport Chafei Amsei,Brazil,Barretos,-20.584547,-48.594086
BAU,Bauru,Brazil,Bauru,-22.345042,-49.0538
BAV,Baotou,China,Baotou,40.559999,109.996944
BAW,Biawonque,Gabon,Biawonque,-0.867,9.283
BAX,Barnaul,Russian Federation,Barnaul,53.363775,83.538533
BAY,Baia Mare,Romania,Baia Mare,47.658389,23.470022
BAZ,Barbelos,Brazil,Barbelos,-0.981292,-62.919644
BBA,Teniente Vidal,Chile,Balmaceda,-45.916058,-71.689475
BBB,Municipal,United States,Benson,45.331917,-95.650583
BBC,Bay City,United States,Bay City,28.97325,-95.863444
BBD,Curtis Field,United States,Brady,31.179278,-99.323917
BBE,Big Bell,Australia,Big Bell,-27.416666666667,117.66666666667
BBF,Burlington,United States,Burlington,42.5,-71.183333333333
BBG,Butaritari,Kiribati,Butaritari,3.085833,172.811111
BBH,Barth,Germany,Barth,54.33754,12.699705
BBI,Bhubaneswar,India,Bhubaneswar,20.244364,85.817781
BBJ,Bitburg Air Base,Germany,Bitburg,49.945333,6.565
BBK,Kasane,Botswana,Kasane,-17.832875,25.1624
BBL,Babolsar,Iran,Babolsar,36.65,52.667
BBM,Battambang,Cambodia,Battambang,13.095564,103.224408
BBN,Bario,Malaysia,Bario,3.736944,115.469444
BBO,Berbera,Ethiopia,Berbera,10.389167,44.941106
BBP,Bembridge,United Kingdom,Bembridge,50.677778,-1.109444
BBQ,Barbuda,Antigua And Barbuda,Barbuda,17.635833,-61.826944
BBR,Baillif,Guadeloupe,Basse Terre,16.013333,-61.742222
BBS,Blackbushe,United Kingdom,Yateley,51.323889,-0.8475
BBT,Berberati,Central African Republic,Berberati,4.221583,15.786369
BBU,Baneasa,Romania,Bucharest,44.503194,26.102111
BBV,Hkg,Cote D&#039;Ivoire,Bereby,4.633,-6.917
BBW,Broken Bow,United States,Broken Bow,41.436451,-99.642169
BBX,Wings Field,United States,Blue Bell,40.137556,-75.265139
BBY,Bambari,Central African Republic,Bambari,5.846944,20.6475
BBZ,Zambezi,Zambia,Zambezi,-13.537222,23.108333
BCA,Baracoa,Cuba,Baracoa,20.365317,-74.506206
BCB,Virginia Tech,United States,Blacksburg,37.207639,-80.407833
BCC,Bear Creek,United States,Bear Creek,63.571609,-156.144051
BCD,Bacolod,Philippines,Bacolod,10.642511,122.929617
BCE,Bryce,United States,Bryce,37.706444,-112.145806
BCF,Bouca,Central African Republic,Bouca,6.517,18.267
BCG,Bemichi,Guyana,Bemichi,7.7,-59.167
BCH,Cakung International,East Timor-Indonesia,Baucau,-8.485472,126.399333
BCI,Barcaldine,Australia,Barcaldine,-23.565278,145.306667
BCJ,Baca Grande,United States,Baca Grande,37.966666666667,-105.76666666667
BCK,Bolwarra,Australia,Bolwarra,-17.3875,144.168889
BCL,Barra Colorado,Costa Rica,Barra Colorado,10.767,-83.583
BCM,Bacau,Romania,Bacau,46.521944,26.910278
BCN,El Prat De Llobregat,Spain,Barcelona,41.297078,2.078463
BCO,Jinka,Ethiopia,Jinka,5.783,36.55
BCP,Bambu,Ethiopia,Bambu,-5.867,146.483
BCQ,Brack,Namibia,Brack,27.653,14.272
BCR,Boca Do Acre,Brazil,Boca Do Acre,-8.834561,-67.312403
BCS,Southern Seaplane,United States,Belle Chasse,29.866039,-90.022293
BCT,Public,United States,Boca Raton,26.3785,-80.107694
BCU,Bauchi,Nigeria,Bauchi,10.294444,9.816667
BCV,Belmopan,Belize,Belmopan,61.416083,-149.508306
BCW,Benguera Island,Mozambique,Benguera Island,-21.853056,35.438333
BCX,Beloreck,Russian Federation,Beloreck,53.938056,58.34
BCY,Bulchi,Ethiopia,Bulchi,6.217,36.667
BCZ,Bickerton Island,Australia,Bickerton Island,-13.781944,136.201944
BDA,Kindley Field,Bermuda,Bermuda,32.364041,-64.678703
BDB,Bundaberg,Australia,Bundaberg,-24.903889,152.318611
BDC,Barra Do Corda,Brazil,Barra Do Corda,-5.500269,-45.242222
BDD,Badu Island,Australia,Badu Island,-10.15,142.174167
BDE,Baudette,United States,Baudette,48.728444,-94.612222
BDF,Rinkenberger,United States,Bradford,41.230871,-89.615652
BDG,Blanding,United States,Blanding,37.583337,-109.483289
BDH,Bandar Lengeh,Iran,Bandar Lengeh,26.532,54.824847
BDI,Bird Island,Seychelles,Bird Island,-3.724722,55.205278
BDJ,Sjamsudin Noor,Indonesia,Banjarmasin,-3.442356,114.762553
BDK,Bondoukou,Cote D&#039;Ivoire,Bondoukou,8.017222,-2.761944
BDL,Bradley International,United States,Windsor Locks,41.938889,-72.683222
BDM,Bandirma,Turkey,Bandirma,40.317972,27.977694
BDN,Talhar,Pakistan,Badin,24.841519,68.838408
BDO,Husein Sastranegara,Indonesia,Bandung,-6.900625,107.576294
BDP,Bhadrapur,Nepal,Bhadrapur,26.570278,88.075833
BDQ,Vadodara,India,Vadodara,22.336164,73.226289
BDR,Igor I. Sikorsky Mem.,United States,Bridgeport,41.163472,-73.126167
BDS,Papola Casale,Italy,Brindisi,40.657633,17.947033
BDT,Kisangani,Democratic Republic Of Congo,Gbadolite,4.253206,20.975283
BDU,Bardufoss,Norway,Bardufoss,69.055758,18.540356
BDV,Moba,Democratic Republic Of Congo,Moba,-7.083889,29.738333
BDW,Bedford Downs,Australia,Bedford Downs,-17.2875,127.466944
BDX,Broadus,United States,Broadus,45.433325,-105.417213
BDY,State,United States,Bandon,43.086472,-124.407861
BDZ,Baindoung,Papua New Guinea,Baindoung,-6.333,146.933
BEA,Bereina,Papua New Guinea,Bereina,-8.633,146.5
BEB,Benbecula,United Kingdom,Benbecula,57.481111,-7.362778
BEC,Beech,United States,Wichita,37.694475,-97.214989
BED,Hanscom Field,United States,Bedford/Hanscom,42.469953,-71.28903
BEE,Beagle Bay,Australia,Beagle Bay,-17.016389,122.646111
BEF,Bluefields,Nicaragua,Bluefields,11.990961,-83.774086
BEG,Nikola Tesla,Serbia,Belgrade,44.818444,20.309139
BEH,Ross Field,United States,Benton Harbor,42.128583,-86.4285
BEI,Beica,Ethiopia,Beica,9.386389,34.521944
BEJ,Kalimaru,Indonesia,Tanjung Redep,2.155497,117.432256
BEK,Bareli,India,Bareli,26.217,81.233
BEL,Val De Cans,Brazil,Belem,-1.37925,-48.476292
BEM,Bossembele,Central African Republic,Bossembele,5.267,17.633
BEN,Benina Intl,Libya,Benghazi,32.096786,20.269472
BEO,Belmont,Australia,Newcastle,-33.066111,151.646389
BEP,Bellary,India,Bellary,15.162783,76.882775
BEQ,Honington,United Kingdom,Bury St Edmunds,52.342611,0.772939
BER,Berlin Metropolitan Area,Germany,Berlin,52.517,13.4
BES,Guipavas,France,Brest,48.447222,-4.421667
BET,Bethel Airport,United States,Bethel,60.778557,-161.837177
BEU,Bedourie,Australia,Bedourie,-24.346111,139.460278
BEV,Beer Sheba,Israel,Beer Sheba,31.287003,34.722953
BEW,Beira,Mozambique,Beira,-19.796419,34.907556
BEX,RAF Station,United Kingdom,Benson,51.616389,-1.095833
BEY,Rafic Hariri International Airport,Lebanon,Beirut,33.820931,35.488389
BEZ,Beru,Kiribati,Beru,-1.354722,176.006944
BFA,Bahia Negra,Paraguay,Bahia Negra,45.165842,-84.924114
BFB,Blue Fox Bay,United States,Blue Fox Bay,58.183333333333,-152.13333333333
BFC,Bloomfield,Australia,Bloomfield,-15.873611,145.329722
BFD,Bradford,United States,Bradford,41.803068,-78.640121
BFE,Bielefeld,Germany,Bielefeld,51.964833,8.544833
BFF,Scotts Bluff County,United States,Scottsbluff,41.874028,-103.595639
BFG,Bullfrog Basin,United States,Bullfrog Basin,37.545824,-110.713199
BFH,Bacacheri,Brazil,Curitiba,-25.405,-49.231944444444
BFI,Boeing Field/King County International Airport,United States,Seattle,47.53,-122.301972
BFJ,Ba,Fiji,Ba,-17.55,177.667
BFK,Buffalo Municipal Airport,United States,Buffalo,36.863301,-99.618731
BFL,Meadows Field,United States,Bakersfield,35.433861,-119.057667
BFM,Mob Aerospace,United States,Mobile,30.626778,-88.068083
BFO,Buffalo Range,Zimbabwe,Buffalo Range,-21.008083,31.57855
BFP,Beaver Falls,United States,Beaver Falls,40.772472,-80.391444
BFQ,Bahia Pinas,Panama,Bahia Pinas,7.583,-78.2
BFR,Virgil I Grissom Muni,United States,Bedford,38.840028,-86.445361
BFS,Aldergrove International Airport,United Kingdom,Belfast,54.6575,-6.215833
BFT,County,United States,Beaufort,32.412166,-80.634354
BFU,Bengbu,China,Bengbu,32.8475,117.320278
BFV,Buri Ram,Thailand,Buri Ram,15.229539,103.253231
BFW,Sidi Belabbes,Algeria,Sidi Belabbes,47.249028,-91.415583
BFX,Bafoussam,Cameroon,Bafoussam,5.536919,10.354583
BGA,Palo Negro,Colombia,Bucaramanga,7.126944,-73.185
BGB,Booue,Gabon,Booue,-0.1,11.95
BGC,Braganca,Portugal,Braganca,41.8578,-6.707125
BGD,Borger,United States,Borger,35.700894,-101.393663
BGE,Decatur County,United States,Bainbridge,30.971598,-84.636928
BGF,Bangui,Central African Republic,Bangui,4.398475,18.518786
BGG,Bongouanou,Cote D&#039;Ivoire,Bongouanou,6.65,-4.2
BGH,Abbaye,Mauritania,Boghe,16.633,-14.183
BGI,Grantley Adams International,Barbados,Bridgetown,13.074603,-59.492456
BGJ,Borgarfjordur Eystri,Iceland,Borgarfjordur Eystri,65.516389,-13.805
BGK,Big Creek,Belize,Big Creek,16.517,-88.4
BGL,Baglung,Nepal,Baglung,28.212816,83.666328
BGM,Greater Binghamton,United States,"Binghamton, NY",42.208556,-75.979722
BGN,R.A.F.,Germany,Brueggen,51.2,6.133
BGO,"Bergen Airport, Flesland",Norway,Bergen,60.293386,5.218142
BGP,Bongo,Gabon,Bongo,-2.2,10.233
BGQ,Big Lake,United States,Big Lake,61.536122,-149.813897
BGR,Bangor International Airport,United States,Bangor,44.807444,-68.828139
BGS,Webb AFB,United States,Big Spring,32.21444444,-101.52499999
BGT,Bagdad,United States,Bagdad,34.595853,-113.170195
BGU,Bangassou,Central African Republic,Bangassou,4.785,22.781
BGV,Bento Goncalves,Brazil,Bento Goncalves,-29.167,-51.5
BGW,Al Muthana,Iraq,Baghdad,33.262538,44.234577
BGX,Airport Cmdt. Gustavo Kraemer,Brazil,Bage,-31.390528,-54.112244
BGY,Orio al Serio,Italy,Bergamo,45.673889,9.704166
BGZ,Braga,Portugal,Braga,41.587058,-8.445139
BHA,Bahia De Caraquez,Ecuador,Bahia De Caraquez,-0.608111,-80.402683
BHB,Bar Harbor,United States,Bar Harbor,44.449769,-68.361565
BHC,Bhurban Heliport,United States,Bhurban,31.713833,-82.393778
BHD,George Best Belfast City,United Kingdom,Belfast,54.618056,-5.8725
BHE,Woodbourne Air Station,New Zealand,Blenheim,-41.518333,173.870278
BHF,Bahia Cupica,Colombia,Bahia Cupica,6.55,-77.333
BHG,Brus Laguna,Honduras,Brus Laguna,15.735,-84.5425
BHH,Bisha,Saudi Arabia,Bisha,19.98435,42.620881
BHI,Comandante,Argentina,Bahia Blanca,-38.724967,-62.169317
BHJ,Rudra Mata,India,Bhuj,23.287828,69.670147
BHK,Bukhara,Uzbekistan,Bukhara,39.775,64.483333
BHL,Bahia Angeles,Mexico,Bahia Angeles,28.978611,-113.560833
BHM,Birmingham,United Kingdom,Birmingham,33.563889,-86.752306
BHN,Beihan,Yemen,Beihan,14.781972,45.720083
BHO,Bhopal,India,Bhopal,23.287467,77.337375
BHP,Bhojpur,Nepal,Bhojpur,27.14743,87.050819
BHQ,Broken Hill,Australia,Broken Hill,-32.001389,141.471667
BHR,Bharatpur Airport,Nepal,Bharatpur,27.678056,84.429444
BHS,Raglan,Australia,Bathurst,-33.409444,149.651944
BHT,Brighton Downs,Australia,Brighton Downs,-23.363333,141.562778
BHU,Bhavnagar,India,Bhavnagar,21.752206,72.185181
BHV,Bahawalpur,Pakistan,Bahawalpur,29.3481,71.717981
BHW,Bhagatanwala Apt,Pakistan,Sargodha,32.083611111111,72.671111111111
BHX,Birmingham International Airport,United Kingdom,Birmingham,52.453856,-1.748028
BHY,Beihai,China,Beihai,21.539444,109.293889
BIA,Poretta,France,Bastia,42.55,9.484722
BIB,Baidoa,Somalia,Baidoa,3.101667,43.626944
BIC,Big Creek,United States,Big Creek,57.666666666667,-157.58333333333
BID,Block Island,United States,Block Island,41.168111,-71.577833
BIE,Beatrice,United States,Beatrice,40.301278,-96.754111
BIF,Biggs Aaf,United States,El Paso,31.849525,-106.380039
BIG,Intermediate Field,United States,Big Delta,63.99516,-145.720025
BIH,Bishop,United States,Bishop,37.373111,-118.363611
BII,Enyu Airfield,Marshall Islands,Bikini Atoll,11.5225,165.565
BIJ,Biliau,Papua New Guinea,Biliau,-5.583,146.333
BIK,Frans Kaisepo,Indonesia,Biak,-1.190017,136.107997
BIL,Billings,United States,Billings,45.807667,-108.542889
BIM,International,Bahamas,Bimini,25.699881,-79.264656
BIN,Bamiyan,Afghanistan,Bamiyan,34.808622,67.818233
BIO,Sondica,Spain,Bilbao,43.301097,-2.910608
BIP,Bulimba,Australia,Bulimba,-16.883056,143.481389
BIQ,Biarritz Parme,France,Biarritz,43.468333,-1.531111
BIR,Biratnagar,Nepal,Biratnagar,26.484167,87.264444
BIS,Bismarck,United States,Bismarck,46.772722,-100.74575
BIT,Baitadi,Nepal,Baitadi,29.465263,80.549156
BIU,Bildudalur,Iceland,Bildudalur,65.641389,-23.546111
BIV,Bria,Central African Republic,Bria,6.527778,21.989444
BIW,Billiluna,Australia,Billiluna,-19.564722,127.671944
BIX,Keesler AFB,United States,Biloxi,30.410425,-88.924433
BIY,Bisho,South Africa,Bisho,-32.89715,27.279111
BIZ,Bimin,Papua New Guinea,Bimin,-5.283,142.017
BJA,Bejaia,Algeria,Bejaia,36.711944,5.069444
BJB,Bojnord,Bosnia And Herzegovina,Bojnord,37.492958,57.308219
BJC,Jeffco,United States,Broomfield,39.908806,-105.117194
BJD,Bakkafjordur,Iceland,Bakkafjordur,66.021944,-14.824444
BJF,Batsfjord,Norway,Batsfjord,70.600278,29.6925
BJG,Bolaang,Indonesia,Bolaang,0.933,124.167
BJH,Bajhang,Nepal,Bajhang,29.53896,81.185364
BJI,Bemidji,United States,Bemidji,47.510722,-94.934722
BJJ,Wayne County,United States,Wooster,40.874833,-81.88825
BJK,Benjina,Indonesia,Benjina,-6.0662,134.273928
BJL,Yundum International,Gambia,Banjul,13.337961,-16.652206
BJM,International,Burundi,Bujumbura,-3.324019,29.318519
BJN,Bajone,Mozambique,Bajone,-17.167,37.95
BJO,Bermejo,Argentina,Bermejo,-22.773336,-64.312881
BJP,Braganca Paulista,Brazil,Braganca Paulista,-4.633333333333,-39.766666666667
BJR,Bahar Dar,Ethiopia,Bahar Dar,11.608075,37.321644
BJT,Bentota River,Sri Lanka,Bentota River,6.421111111111,79.998888888889
BJU,Bajura Arpt,Nepal,Bajura,29.502,81.669
BJV,Milas Airport,Turkey,Bodrum,37.250611,27.664311
BJW,Bajawa,Indonesia,Bajawa,-8.817,120.983
BJX,Del Bajнo International,Mexico,Leуn,20.993464,-101.480847
BJY,Batajnica,Serbia,Belgrade,44.935331,20.257506
BJZ,Talaveral La Real,Spain,Badajoz,38.89125,-6.821333
BKA,Bykovo,Russian Federation,Moscow,55.617222,38.059999
BKB,Bikaner,India,Bikaner,28.070606,73.207161
BKC,Buckland,United States,Buckland,65.981565,-161.149071
BKD,Stephens County,United States,Breckenridge,32.718753,-98.891597
BKE,Baker,United States,Baker,44.83735,-117.809144
BKF,Lake Brooks SPB,United States,Katmai National Park,58.554843,-155.777388
BKH,Barking Sands PMRF,United States,Kekaha,22.022774,-159.785059
BKI,Kota-Kinabalu International Airport,Malaysia,Kota-Kinabalu,5.937208,116.051181
BKJ,Boke,Guinea,Boke,10.965833,-14.281111
BKK,Suvarnabhumi International,Thailand,Bangkok,13.681108,100.747283
BKL,Burke Lakefront,United States,Cleveland,41.5175,-81.683333
BKM,Bakalalan,Malaysia,Bakalalan,3.988611,115.618889
BKN,Birni Nkoni,Niger,Birni Nkoni,13.8,5.25
BKO,Bamako,Mali,Bamako,12.533544,-7.949944
BKP,Barkly Downs,Australia,Barkly Downs,-20.464167,138.471111
BKQ,Blackall,Australia,Blackall,-24.427778,145.428611
BKR,Bokoro,Chad,Bokoro,12.385278,17.070833
BKS,Padangkemiling,Indonesia,Bengkulu,-3.8637,102.339036
BKT,Blackstone AAF,United States,Blackstone,37.074346,-77.957346
BKU,Betioky,Madagascar,Betioky,-23.733,44.389
BKW,Beckley,United States,Beckley,37.787326,-81.124164
BKX,Brookings,United States,Brookings,44.304833,-96.816944
BKY,Kavumu,Democratic Republic Of Congo,Bukavu,-2.308978,28.808803
BKZ,Bukoba,Tanzania,Bukoba,-1.3,31.8
BLA,Gen J A Anzoategui,Venezuela,Barcelona,10.107139,-64.689161
BLB,Balboa,Panama,Balboa,8.914794,-79.599633
BLC,Bamenda,Cameroon,Bali,5.894722,10.033333
BLD,Boulder City,United States,Boulder City,35.94748,-114.861097
BLE,Dala Airport,Sweden,Borlange,60.422017,15.515211
BLF,Princeton,United States,Princeton,37.295806,-81.207694
BLG,Belaga,Malaysia,Belaga,2.636111,113.760556
BLH,Blythe,United States,Blythe,33.619167,-114.716889
BLI,Bellingham,United States,Bellingham,48.792694,-122.537528
BLJ,Batna,Algeria,Batna,35.759167,6.3225
BLK,Blackpool Airport,United Kingdom,Blackpool,53.771667,-3.028611
BLL,Billund,Denmark,Billund,55.740322,9.151778
BLM,Monmouth Executive Airport,United States,Belmar - Farmingdale,40.18675,-74.124556
BLN,Benalla,Australia,Benalla,-36.551944,146.006667
BLO,Blonduos,Iceland,Blonduos,65.645,-20.2875
BLP,Bellavista,Peru,Bellavista,-7.060556,-76.582222
BLQ,Guglielmo Marconi,Italy,Bologna,44.535444,11.288667
BLR,Bangalore International Airport,India,Bangalore,13.198867,77.705472
BLS,Bollon,Australia,Bollon,-28.0525,147.48
BLT,Blackwater,Australia,Blackwater,-23.603056,148.806944
BLU,Blue Canyon,United States,Blue Canyon,39.274972,-120.70975
BLV,Belleville,United States,Belleville,38.545167,-89.835194
BLW,Bellows Field,United States,Waimanalo,21.35,-157.71666666667
BLX,Belluno,Italy,Belluno,46.166667,12.245278
BLY,Belmullet,Ireland,Belmullet,54.222778,-10.030833
BLZ,Chileka,Malawi,Blantyre,-15.679053,34.974014
BMA,Bromma,Sweden,Stockholm,59.354372,17.94165
BMB,Bumba,Democratic Republic Of Congo,Bumba,2.182778,22.481667
BMC,Brigham City,United States,Brigham City,41.552389,-112.062222
BMD,Belo,Madagascar,Belo,-19.686667,44.541944
BME,Broome,Australia,"Broome, Western Australia",-17.944722,122.231667
BMF,Bakouma,Central African Republic,Bakouma,5.694,22.801
BMG,Bloomington,United States,Bloomington,39.146021,-86.61668
BMH,Bomai,Papua New Guinea,Bomai,-6.367,144.633
BMI,Central Illinois Regional Airport at Bloomington-Normal,United States,"Bloomington/Normal, IL",40.477111,-88.915917
BMJ,Baramita,Guyana,Baramita,7.417,-60.5
BMK,Borkum,Germany,Borkum,53.5955,6.709167
BML,Berlin Municipal Airport,United States,Berlin,44.575361,-71.175917
BMM,Bitam,Gabon,Bitam,2.075638,11.493195
BMN,Bamerny,Iraq,Bamerny,37.09875,43.266583
BMO,Bhamo,Myanmar,Bhamo,24.269033,97.246153
BMP,Brampton Island,Australia,Brampton Island,-20.803,149.27
BMQ,Bamburi,Kenya,Bamburi,-3.981944,39.730556
BMR,Baltrum,Germany,Baltrum Island,53.726944,7.373055
BMS,Brumado,Brazil,Brumado,-14.255383,-41.817458
BMT,Beaumont Muni,United States,Beaumont,30.070204,-94.215097
BMU,Bima,Indonesia,Bima,-8.539647,118.687322
BMV,Phung-Duc,Vietnam,Banmethuot,12.668311,108.120272
BMW,Bordj Badji Mokhtar,Algeria,Bordj Badji Mokhtar,21.375,0.923889
BMX,Big Mountain,United States,Big Mountain,59.361247,-155.258821
BMY,Belep Island,New Caledonia,Belep Island,-19.720556,163.661111
BMZ,Bamu,Papua New Guinea,Bamu,-7.833,143.233
BNA,Nashville International,United States,"Nashville, TN",36.124472,-86.678194
BNB,Boende,Democratic Republic Of Congo,Boende,-0.286,20.884
BNC,Beni,Democratic Republic Of Congo,Beni,0.575,29.473889
BND,Bandar Abbas,Iran,Bandar Abbas,27.218317,56.37785
BNE,Brisbane International,Australia,Brisbane,-27.384167,153.1175
BNF,Warm Spring Bay SPB,United States,Baranof,57.088826,-134.833141
BNG,Banning,United States,Banning,33.922583,-116.850528
BNH,Barnes,United States,Hartford,41.766388888889,-72.683333333333
BNI,Benin City,Nigeria,Benin City,6.316981,5.599503
BNK,Ballina Byron Gateway,Australia,Ballina,-28.833889,153.5625
BNL,Barnwell Regional,United States,"Barnwell, SC",33.258001,-81.387933
BNM,Bodinumu,Papua New Guinea,Bodinumu,-9.133,147.667
BNN,Bronnoy,Norway,Bronnoysund,65.461111,12.2175
BNO,Burns,United States,Burns,43.591907,-118.955436
BNP,Bannu,Pakistan,Bannu,32.967,70.533
BNQ,Baganga,Philippines,Baganga,7.6,126.567
BNR,Banfora,Burkina Faso,Banfora,10.683,-4.717
BNS,Barinas,Venezuela,Barinas,8.619575,-70.220825
BNT,Bundi,Papua New Guinea,Bundi,-5.733,145.217
BNU,Blumenau,Brazil,Blumenau,-26.830644,-49.090314
BNV,Boana,Papua New Guinea,Boana,-6.417,146.817
BNW,Boone,United States,Boone,42.049556,-93.847611
BNX,Banja Luka,Bosnia And Herzegovina,Banja Luka,44.941444,17.297501
BNY,Bellona,Solomon Islands,Bellona,-11.302222,159.798056
BNZ,Banz,Papua New Guinea,Banz,-5.8,144.6
BOA,Boma,Democratic Republic Of Congo,Boma,-5.854,13.064
BOB,Motu-mute,French Polynesia,Bora Bora,-16.444378,-151.751286
BOC,Bocas Del Toro,Panama,Bocas Del Toro,9.340853,-82.250842
BOD,Mйrignac,France,Bordeaux,44.828611,-0.715278
BOE,Boundji,Congo,Boundji,-1.033,15.383
BOF,Bolling AFB,Canada,Washington,38.842891,-77.016087
BOG,Eldorado International,Colombia,Bogota,4.703056,-74.138333
BOH,Bournemouth International,United Kingdom,Bournemouth,50.78,-1.8425
BOI,Boise Air Terminal/Gowen Field,United States,"Boise, ID",43.564361,-116.222861
BOJ,Bourgas,Bulgaria,Bourgas,42.569583,27.515236
BOK,Brookings State,United States,Brookings,42.074556,-124.290094
BOL,Bally Kelly,United Kingdom,Bally Kelly,55.059999,-7.015833
BOM,Chhatrapati Shivaji International,India,Mumbai,19.088686,72.867919
BON,Flamingo International,Netherlands Antilles,Kralendijk,12.131044,-68.268511
BOO,Bodo,Norway,Bodo,67.269167,14.365278
BOP,Bouar,Central African Republic,Bouar,5.958,15.637
BOQ,Boku,Papua New Guinea,Boku,-6.533,155.333
BOR,Fontaine,France,Belfort,47.655556,7.010833
BOS,Logan International,United States,Boston,42.362972,-71.006417
BOT,Boset,Papua New Guinea,Boset,-7.233,141.083
BOU,Bourges,France,Bourges,47.064453,2.378953
BOV,Boang,Papua New Guinea,Boang,-3.383,153.267
BOW,Bartow,United States,Bartow,27.943361,-81.783417
BOX,Borroloola,Australia,Borroloola,-16.075278,136.302222
BOY,Borgo,Burkina Faso,Bobo Dioulasso,11.160056,-4.330969
BOZ,Bozoum,Central African Republic,Bozoum,6.344167,16.321943
BPA,Grumman,United States,Bethpage,40.75,-73.483333333333
BPB,Boridi,Papua New Guinea,Boridi,-9.133,147.533
BPC,Bamenda,Cameroon,Bamenda,6.039239,10.122639
BPD,Bapi,Papua New Guinea,Bapi,-7.733,147.017
BPE,Bagan,Central African Republic,Bagan,5.9,16.466666666667
BPF,Batuna Aerodrome,Solomon Islands,Batuna,-8.561667,158.119167
BPG,Barra Do Garcas,Brazil,Barra Do Garcas,-15.861344,-52.388894
BPH,Bislig,Philippines,Bislig,8.19595,126.321597
BPI,Big Piney-marbleton,United States,Big Piney,42.58507,-110.111153
BPK,Biangabip,Papua New Guinea,Biangabip,36.368942,-92.470528
BPN,Sepingan,Indonesia,Balikpapan,-1.268272,116.894478
BPS,Porto Seguro,Brazil,Porto Seguro,-16.438638,-39.080917
BPT,Jefferson County,United States,Beaumont,29.950833,-94.020694
BPU,Beppu,Japan,Beppu,33.3,131.533
BPX,Qamdo Bangda,China,Bangda,30.553611,97.108333
BPY,Besalampy,Madagascar,Besalampy,-16.741945,44.481388
BQA,Baler,Philippines,Baler,15.729836,121.500133
BQB,Bussellton,Australia,Bussellton,-33.6925,115.39527777778
BQE,Bubaque,Guinea-Bissau,Bubaque,11.2975,-15.838056
BQH,London Biggin Hill,United Kingdom,Biggin Hill,51.330833,0.0325
BQI,Bagani,Mali,Bagani,11.4,-7.85
BQK,Glynco Jetport,United States,Brunswick,31.259034,-81.466316
BQL,Boulia,Australia,Boulia,-22.913333,139.899722
BQN,Borinquen,Puerto Rico,Aguadilla,18.494861,-67.129444
BQO,Bouna,Cote D&#039;Ivoire,Bouna,9.2775,-3.025278
BQQ,Barra,United Kingdom,Barra,-11.080767,-43.147494
BQS,Ignatievo,Russian Federation,Blagoveschensk,50.425394,127.412478
BQT,Brest,Belarus,Brest,52.108334,23.898056
BQU,J.F. Mitchell,Saint Vincent and the Grenadines,Bequia,12.988444,-61.262033
BQV,Bartlett SPB,United States,Gustavus,58.455208,-135.88517
BQW,Balgo Hills,Australia,Balgo Hills,-20.148333,127.973333
BRA,Barreiras,Brazil,Barreiras,-12.078892,-45.008994
BRB,Barreirinhas,Brazil,Barreirinhas,-12.079722,-45.01
BRC,International,Argentina,San Carlos DeBariloche,-41.151172,-71.157542
BRD,Brainerd Lakes Regional,United States,"Brainerd, MN",46.40175,-94.135583
BRE,Bremen,Germany,Bremen,53.0475,8.786667
BRF,Bradford,United Kingdom,Bradford,51.0,-3.183333333333
BRG,Municipal,United States,Whitesburg,37.116666666667,-82.816666666667
BRH,Brahman,Papua New Guinea,Brahman,-5.733,145.367
BRI,Palese,Italy,Bari,41.138856,16.760594
BRJ,Bright,Australia,Bright,-36.733,146.967
BRK,Bourke,Australia,Bourke,-30.039167,145.951667
BRL,Burlington,United States,Burlington,40.783225,-91.125506
BRM,Barquisimeto,Venezuela,Barquisimeto,10.042747,-69.358619
BRN,Belp,Switzerland,Berne,46.9141,7.497153
BRO,South Padre Is. Intl,United States,Brownsville,25.906833,-97.425833
BRP,Biaru,Papua New Guinea,Biaru,-7.667,146.35
BRQ,Turany,Czech Republic,Brno,49.151269,16.694433
BRR,North Bay,United Kingdom,Barra,57.022778,-7.443056
BRS,Bristol,United Kingdom,Bristol,51.382669,-2.719089
BRT,Bathurst Island,Australia,Bathurst Island,-11.769167,130.619722
BRU,Brussels Airport,Belgium,Brussels,50.901389,4.484444
BRV,Bremerhaven,Germany,Bremerhaven,53.507081,8.572878
BRW,Wiley Post/W.Rogers M,United States,Barrow,71.284889,-156.768583
BRX,Barahona,Dominican Republic,Barahona,18.251464,-71.1204
BRY,Samuels Field,United States,"Bardstown, KY",37.814333,-85.499639
BRZ,Borotou,Cote D&#039;Ivoire,Borotou,8.733,-7.5
BSA,Bossaso,Somalia,Bossaso,11.275278,49.149444
BSB,Presidente Juscelino Kubitschek,Brazil,Brasilia,-15.8711,-47.918625
BSC,Bahia Solano,Colombia,Bahia Solano,6.202936,-77.3948
BSD,Baoshan,China,Baoshan,25.051667,99.168056
BSE,Sematan,Malaysia,Sematan,1.813611,109.762778
BSF,Bradshaw AAF,Finland,Pohakuloa,19.760013,-155.553766
BSG,Bata,Equatorial Guinea,Bata,1.905469,9.805681
BSH,Brighton,United Kingdom,Brighton,50.835556,-0.297222
BSI,Blairsville,United States,Blairsville,40.433333333333,-79.266666666667
BSJ,Bairnsdale,Australia,Bairnsdale,-37.8875,147.567778
BSK,Biskra,Algeria,Biskra,34.801667,5.741667
BSL,Euroairport Basel Mulhouse Freiburg,Switzerland,Mulhouse/basel,47.58999999,7.52999999
BSM,Bishe-kola,Iran,Bishe-kola,36.655144,52.349594
BSN,Bossangoa,Central African Republic,Bossangoa,6.492,17.429
BSO,Basco,Philippines,Basco,20.451322,121.979883
BSP,Bensbach,Papua New Guinea,Bensbach,-8.85,141.25
BSQ,Bisbee Municipal Arpt,United States,Bisbee,31.36399,-109.883129
BSR,International,Iraq,Basra,30.549068,47.662142
BSS,Balsas,Brazil,Balsas,-7.526033,-46.053275
BST,Bost,Afghanistan,Bost,31.559017,64.364099
BSU,Basankusu,Zaire,Basankusu,1.224722,19.788889
BSV,Besakoa,Papua New Guinea,Besakoa,-7.241,141.092
BSW,Boswell Bay,United States,Boswell Bay,60.423064,-146.145909
BSX,Bassein,Myanmar,Bassein,16.815233,94.779911
BSY,Bardera,Somalia,Bardera,2.330556,42.311667
BSZ,Bartletts,United States,Bartletts,58.266666666667,-157.48333333333
BTA,Yaoundй,Cameroon,Yaoundй,4.548611,13.726111
BTB,Betou,Congo,Betou,3.05,18.5
BTC,Batticaloa,Sri Lanka,Batticaloa,7.705756,81.678783
BTD,Brunette Downs,Australia,Brunette Downs,-18.635556,135.939444
BTE,Bonthe,Sierra Leone,Bonthe,7.532222,-12.518611
BTF,Salt Lake Skypark,United States,Bountiful,40.869389,-111.927161
BTG,Batangafo,Central African Republic,Batangafo,7.314167,18.308889
BTH,Hang Nadim,Indonesia,Batam,1.121028,104.118753
BTI,Barter Island,United States,Barter Island,70.172778,-146.836111
BTJ,Sultan Lskandarmuda Airport,Indonesia,Banda Aceh,5.523522,95.420372
BTK,Bratsk,Russian Federation,Bratsk,56.370556,101.698331
BTL,WK Kellogg Regional,United States,Battle Creek,42.307278,-85.25148
BTM,Bert Mooney Airport,United States,"Butte, (MT)",45.954806,-112.497472
BTN,Bennettsville,United States,Bennettsville,34.621709,-79.734359
BTO,Botopasie,Suriname,Botopasie,4.217,-55.45
BTP,Butler County - Kenny Scholter Field,United States,Butler,40.776583,-79.951083
BTQ,Butare,Rwanda,Butare,-2.595833,29.736667
BTR,Ryan,United States,Baton Rouge,30.532906,-91.149877
BTS,M. R. Љtefбnika,Slovakia,Bratislava,48.170167,17.212667
BTT,Bettles,United States,Bettles,66.913944,-151.529056
BTU,Bintulu,Malaysia,Bintulu,3.12385,113.020472
BTV,Burlington International,United States,Burlington,44.471861,-73.153278
BTW,Batu Licin,Indonesia,Batu Licin,-3.412408,115.995136
BTX,Betoota,Australia,Betoota,-25.695,140.736667
BTY,Beatty,United States,Beatty,36.861057,-116.787004
BTZ,Bursa Airport,Turkey,Bursa,40.2325,29.009444
BUA,Buka,Papua New Guinea,Buka,-5.422317,154.672667
BUB,Municipal,United States,Burwell,41.776694,-99.14975
BUC,Burketown,Australia,Burketown,-17.748611,139.534444
BUD,Ferihegy,Hungary,Budapest,47.436933,19.255592
BUG,Gen V Deslandes,Angola,Benguela,-12.609025,13.403711
BUI,Bokondini,Indonesia,Bokondini,-3.7,138.633
BUJ,Ain Eddis,Algeria,Boussaada,35.331389,4.204444
BUK,Albuq,Yemen,Albuq,15.833,43.767
BUL,Bulolo,Papua New Guinea,Bulolo,-7.217,146.633
BUM,Butler,United States,Butler,38.28977,-94.340127
BUN,Buenaventura,Colombia,Buenaventura,3.819592,-76.989625
BUO,Burao,Ethiopia,Burao,9.53,45.556944
BUP,Bhatinda,India,Bhatinda,30.270139,74.755772
BUQ,Bulawayo,Zimbabwe,Bulawayo,-20.017431,28.617869
BUR,Bob Hope,United States,Burbank,34.200667,-118.358667
BUS,Batumi,Georgia,Batumi,41.610278,41.599694
BUT,Burtonwood,United Kingdom,Burtonwood,53.4,-2.633
BUU,Buyo,Cote D&#039;Ivoire,Buyo,6.267,-7.05
BUV,Bella Union,Uruguay,Bella Union,-30.319167,-57.559444
BUW,Baubau,Indonesia,Baubau,-5.486875,122.569047
BUX,Bunia,Democratic Republic Of Congo,Bunia,1.565719,30.220833
BUY,Bunbury,Australia,Bunbury,-33.378332,115.676667
BUZ,Bushehr,Iran,Bushehr,28.944811,50.834637
BVA,Beauvais-Tille,France,Paris,49.454444,2.112778
BVB,Boa Vista,Brazil,Boa Vista,2.846311,-60.690069
BVC,Rabil,Cape Verde,Boa Vista,16.136531,-22.888897
BVD,Sea Port,United States,Beaver Inlet,53.733333333333,-166.31666666667
BVE,Laroche,France,Brive-La-Gaillarde,45.149583,1.474364
BVF,Dama,Fiji,Bua,-16.8,178.617
BVG,Berlevag,Norway,Berlevag,70.871389,29.034167
BVH,Vilhena,Brazil,Vilhena,-12.694375,-60.098269
BVI,Birdsville,Australia,"Birdsville, Queensland",-25.8975,139.3475
BVK,Huacaraje,Bolivia,Huacaraje,-13.533,-63.8
BVL,Baures,Bolivia,Baures,-13.583,-63.583
BVM,Belmonte,Brazil,Belmonte,-15.871694,-38.871917
BVO,Bartlesville,United States,Bartlesville,36.764249,-96.011201
BVP,Bolovip,Papua New Guinea,Bolovip,-5.35,141.65
BVR,Esperadinha,United States,Brava,14.844,-24.711
BVS,Breves,Brazil,Breves,-1.636531,-50.443614
BVU,Beluga,United States,Beluga,61.172219,-151.043897
BVW,Batavia Downs,Australia,Batavia Downs,-12.659167,142.674722
BVX,Municipal,United States,Batesville,35.726222,-91.647444
BVY,Beverly Municiple Airport,United States,Beverly,42.584141,-70.916144
BVZ,Beverley Springs,Australia,Beverley Springs,-16.733611,125.439444
BWA,Bhairawa,Nepal,Bhairawa,27.507222,83.418056
BWB,Barrow Island,Australia,Barrow Island,-20.864444,115.406111
BWC,Brawley,United States,Brawley,32.992944,-115.516889
BWD,Brownwood,United States,Brownwood,31.793611,-98.9565
BWE,Braunschweig,Germany,Braunschweig,52.319167,10.556111
BWF,Walney Island,United Kingdom,Barrow-In-Furness,54.131167,-3.263667
BWG,Warren County,United States,Bowling Green,36.964528,-86.419667
BWH,Butterworth,Malaysia,Butterworth,5.465917,100.391167
BWI,Baltimore/Washington International Thurgood Marshall Airport,United States,Baltimore/Washington,39.175361,-76.668333
BWJ,Bawan,Papua New Guinea,Bawan,-6.4,146.9
BWK,Bol,Croatia,Bol,43.285719,16.679718
BWL,Blackwell,United States,Blackwell,36.795865,-97.316988
BWM,Bowman,United States,Bowman,46.186991,-103.428081
BWN,Bandar Seri Begwan International Airport,Brunei Darussalam,Bandar Seri Begawan,4.9442,114.928353
BWO,Balakovo,Russian Federation,Balakovo,51.858333,47.745556
BWP,Bewani,Papua New Guinea,Bewani,-3.017,141.15
BWQ,Brewarrina,Australia,Brewarrina,-29.973889,146.816667
BWS,Blaine,United States,Blaine,48.990059,-122.732369
BWT,Burnie Wynyard,Australia,Burnie,-40.998889,145.731111
BWU,Sydney Bankstown,Australia,Sydney,-33.924444,150.988333
BWY,Bentwaters St,United Kingdom,Woodbridge,52.1,1.316666666667
BXA,George R Carr,United States,Bogalusa,30.813686,-89.864964
BXB,Babo,Indonesia,Babo,-2.532242,133.438894
BXC,Boxborough,United States,Boxborough,42.483611111111,-71.535277777778
BXD,Bade,Indonesia,Bade,-7.15,139.567
BXE,Bakel,Senegal,Bakel,14.847256,-12.468264
BXF,Belburn,Norway,Belburn,64.233333333333,12.5
BXG,Bendigo,Australia,Bendigo,33.041289,-82.00269
BXH,Balhash,Kazakhstan,Balhash,46.893333,75.005
BXI,Boundiali,Cote D&#039;Ivoire,Boundiali,9.533,-6.467
BXJ,Burundai,Kazakhstan,Burundai,45.083333333333,74.016666666667
BXK,Buckeye Municipal,United States,Buckeye,33.420417,-112.686181
BXL,Blue Lagoon,Fiji,Blue Lagoon,-16.944,177.369
BXM,Batom,Indonesia,Batom,-2.283,139.6
BXN,Imsik Airport,Turkey,Bodrum,37.140144,27.669717
BXO,Buochs,Guinea-Bissau,Buochs,11.883333333333,-15.65
BXR,Bam,Iran,Bam,29.084169,58.450042
BXS,Borrego Springs,United States,Borrego Springs,33.259028,-116.320972
BXT,Bontang,Indonesia,Bontang,0.117,117.467
BXU,Butuan,Philippines,Butuan,8.951322,125.477972
BXV,Breiddalsvik,Iceland,Breiddalsvik,64.789999,-14.022778
BXX,Borama International,Somalia,Borama,9.933,43.15
BXZ,Bunsil,Papua New Guinea,Bunsil,0.0,0.0
BYA,Boundary,United States,Boundary,64.078303,-141.113375
BYB,Dibaa,United Arab Emirates,Dibaa,25.6,56.233
BYC,Yacuiba,Bolivia,Yacuiba,-21.960925,-63.651669
BYD,Beidah,Yemen,Beidah,14.133,46.55
BYG,Municipal,United States,Buffalo,44.381085,-106.72179
BYH,Blytheville AFB,United States,Blytheville,35.964333,-89.943944
BYI,Rupert,United States,Rupert,42.542604,-113.771544
BYK,Bouake,Cote D&#039;Ivoire,Bouake,7.7388,-5.073667
BYL,Bella Yella,Liberia,Bella Yella,7.367,-9.983
BYM,C.M. de Cespedes,Cuba,Bayamo,20.396331,-76.621494
BYN,Bayankhongor,Mongolia,Bayankhongor,46.163311,100.704086
BYO,Bonito Airport,Brazil,Bonito,-4.55,-38.65
BYQ,Bunyu,Indonesia,Bunyu,3.455725,117.867372
BYR,Laeso Airport,Denmark,Laeso Island,57.277228,11.000083
BYS,Bicycle Lake AAF,United States,Fort Irwin,35.28053,-116.630029
BYT,Bantry,Ireland,Bantry,51.668889,-9.484444
BYU,Bindlacher-Berg,Germany,Bayreuth,49.984428,11.638569
BYW,Blakely Island,United States,Blakely Island,48.578992,-122.826291
BYX,Baniyala,Australia,Baniyala,-13.198056,136.226944
BZA,San Pedro,Nicaragua,Bonanza,13.95,-84.6
BZB,Bazaruto Island,Mozambique,Bazaruto Island,-21.542778,35.472778
BZC,Buzios,Brazil,Buzios,-22.770972,-41.962861
BZD,Balranald,Australia,Balranald,-34.623611,143.578333
BZE,Philip S.W.Goldson Int,Belize,Belize City,17.539144,-88.308203
BZG,Bydgoszcz I. J. Paderewski Airport,Poland,Bydgoszcz,53.096803,17.977669
BZH,Bumi Hills,Zimbabwe,Bumi Hills,-17.483333333333,28.516666666667
BZI,Balikesir,Turkey,Balikesir,39.619258,27.925958
BZK,Briansk,Russian Federation,Briansk,53.214194,34.176447
BZL,Barisal,Bangladesh,Barisal,22.801031,90.301164
BZM,Woensdrecht,Netherlands,Bergen Op Zoom,51.449092,4.342031
BZN,Gallatin Field,United States,Bozeman,45.77757,-111.152022
BZO,Bolzano,Italy,Bolzano,46.460194,11.326383
BZP,Bizant,Australia,Bizant,-14.740278,144.119167
BZR,Beziers Vias,France,Beziers,43.323428,3.353397
BZS,Buzzards Pt S,United States,Washington,38.86333333,-77.01333333
BZT,Hinkles Ferry,United States,Brazoria,29.05,-95.566666666667
BZU,Buta,Democratic Republic Of Congo,Buta,2.818347,24.793706
BZV,Maya Maya,Congo,Brazzaville,-4.2517,15.253031
BZY,Beltsy,Moldova,Beltsy,47.838114,27.781475
BZZ,Raf Brize Norton,United Kingdom,Oxford,51.749964,-1.583617
CAA,Catacamas,Honduras,Catacamas,14.917,-85.9
CAB,Cabinda,Angola,Cabinda,-5.596992,12.188353
CAC,Cascavel,Brazil,Cascavel,-25.000339,-53.500764
CAD,Cadillac,United States,Cadillac,44.275333,-85.418917
CAE,Metropolitan Airport,United States,"Columbia, SC",33.938833,-81.119528
CAF,Carauari,Brazil,Carauari,-4.871519,-66.897458
CAG,Elmas,Italy,Cagliari,39.251469,9.054283
CAH,Ca Mau,Vietnam,Ca Mau,9.188049,105.174721
CAI,Cairo International,Egypt,Cairo,30.121944,31.405556
CAJ,Canaima,Venezuela,Canaima,6.231989,-62.854433
CAK,Akron/canton Regional,United States,"Akron/Canton, OH",40.916083,-81.442194
CAL,Machrihanish,United Kingdom,Campbeltown,55.437222,-5.686389
CAM,Camiri,Bolivia,Camiri,-20.006111,-63.527778
CAN,New Baiyun,China,Guangzhou,23.392436,113.298786
CAO,Clayton,United States,Clayton,36.446152,-103.149969
CAP,Cap Haitien,Haiti,Cap Haitien,19.732989,-72.194739
CAQ,Caucasia,Colombia,Caucasia,7.968469,-75.198461
CAR,Municipal,United States,Caribou,46.8715,-68.017917
CAS,Anfa,Morocco,Casablanca,33.556981,-7.660492
CAT,New Bight,Bahamas,Cat Island,24.315292,-75.452331
CAU,Caruaru,Brazil,Caruaru,-8.282392,-36.013503
CAV,Cazombo,Angola,Cazombo,-11.893056,22.916389
CAW,Bartolomeu Lisandro,Brazil,Campos,-21.698333,-41.301669
CAX,Carlisle,United Kingdom,Carlisle,54.9375,-2.809167
CAY,Rochambeau,French Guiana,Cayenne,4.819722,-52.361944
CAZ,Cobar,Australia,Cobar,-31.538333,145.793889
CBA,Corner Bay,United States,Corner Bay,57.716666666667,-135.2
CBB,J Wilsterman,Bolivia,Cochabamba,-17.421058,-66.177114
CBC,Cherrabun,Australia,Cherrabun,-18.917,125.55
CBD,Car Nicobar,India,Car Nicobar,9.152508,92.819628
CBE,Wiley Ford,United States,Cumberland,39.61525,-78.761889
CBF,Municipal,United States,Council Bluffs,41.26012,-95.758653
CBG,Cambridge,United Kingdom,Cambridge,52.205,0.175
CBH,Leger,Algeria,Bechar,31.650569,-2.253153
CBI,Cape Barren Island,Australia,Cape Barren Island,-40.389722,148.015833
CBJ,Cabo Rojo,Dominican Republic,Cabo Rojo,17.928981,-71.644769
CBK,Municipal,United States,Colby,39.427444,-101.046611
CBL,Ciudad Bolivar,Venezuela,Ciudad Bolivar,8.121898,-63.537353
CBM,Columbus AFB,United States,Columbus,33.645166,-88.445924
CBN,Penggung,Indonesia,Cirebon,-6.756144,108.539672
CBO,Awang,Philippines,Cotabato,7.165242,124.209619
CBP,Coimbra,Portugal,Coimbra,40.157223,-8.47
CBQ,Calabar,Nigeria,Calabar,4.976019,8.347196
CBR,Canberra,Australia,Canberra,-35.306944,149.195
CBS,Oro Negro,Venezuela,Cabimas,10.330069,-71.322528
CBT,Catumbela,Angola,Catumbela,-12.479167,13.486944
CBU,Cottbus,Germany,Cottbus,51.889475,14.531986
CBV,Coban,Guatemala,Coban,15.468958,-90.406742
CBW,Campo Mourao,Brazil,Campo Mourao,-24.009222,-52.356781
CBX,Condobolin,Australia,Condobolin,-33.064444,147.209167
CBY,Canobie,Australia,Canobie,-19.478889,140.927222
CBZ,Cabin Creek,United States,Cabin Creek,55.383333333333,-132.41666666667
CCA,Chaffee AFB,Haiti,Fort Chaffee,35.597769,-92.451617
CCB,Cable Airport,United States,"Upland, CA",34.111611,-117.687389
CCC,Cayo Coco,Cuba,Cayo Coco,22.513228,-78.510972
CCD,Century City,United States,Los Angeles,34.060843,-118.417579
CCE,Grand Case,Guadeloupe,St Martin,18.100556,-63.048889
CCF,Salvaza,France,Carcassonne,43.215817,2.308544
CCG,Crane County Arpt,United States,Crane,31.415139,-102.36292
CCH,Chile Chico,Chile,Chile Chico,-46.583341,-71.687405
CCI,Concordia,Brazil,Concordia,-27.180611,-52.052722
CCJ,Kozhikode Airport,India,Kozhikode,11.136839,75.9553
CCK,Cocos Islands,Cocos (Keeling) Islands,Cocos Islands,-12.188333,96.833889
CCL,Chinchilla,Australia,Chinchilla,-26.775,150.616667
CCM,Criciuma,Brazil,Criciuma,-28.725817,-49.424739
CCN,Chakcharan,Afghanistan,Chakcharan,34.526669,65.271666
CCO,Carimagua,Colombia,Carimagua,4.564167,-71.336389
CCP,Carriel Sur,Chile,Concepcion,-36.77265,-73.063106
CCQ,Cachoeira,Brazil,Cachoeira,-12.6,-38.967
CCR,Buchanan Fld,United States,Concord,37.989667,-122.056889
CCS,Simon Bolivar International Airport,Venezuela,Caracas,10.603117,-66.990583
CCT,Colonia Catriel,Argentina,Colonia Catriel,-37.910183,-67.834969
CCU,Netaji Subhas Chandra,India,Kolkata,22.654739,88.446722
CCV,Craig Cove,Vanuatu,Craig Cove,-16.265,167.924444
CCW,Cowell,Australia,Cowell,-33.667222,136.891111
CCX,Caceres,Brazil,Caceres,-16.043555,-57.629928
CCY,Municipal,United States,Charles City,43.072609,-92.610778
CCZ,Chub Cay,Bahamas,Chub Cay,25.417108,-77.88085
CDA,Cooinda,Australia,Cooinda,-12.903889,132.532778
CDB,Cold Bay,United States,Cold Bay,55.20515,-162.724466
CDC,Cedar City,United States,Cedar City,37.700966,-113.098846
CDD,Cauquira,Honduras,Cauquira,15.317,-83.583
CDE,Caledonia,Panama,Caledonia,56.002113,-134.135338
CDG,Charles De Gaulle,France,Paris,49.009722,2.547778
CDH,Harrell Fld,United States,Camden,33.622806,-92.763389
CDI,Cachoeiro Itapemirim,Brazil,Cachoeiro Itapemirim,28.037583,-115.189572
CDJ,Conceicao Do Araguaia,Brazil,Conceicao Do Araguaia,-8.348347,-49.301528
CDK,Lewis,United States,Cedar Key,29.134222,-83.050472
CDL,Candle,United States,Candle,65.907658,-161.926306
CDN,Woodward Fld,United States,Camden,34.283583,-80.564861
CDO,Cradock,South Africa,Cradock,-32.155555,25.645833
CDP,Cuddapah,India,Cuddapah,14.509961,78.772833
CDQ,Croydon,Australia,Croydon,-18.218,142.254
CDR,Chadron,United States,Chadron,42.837556,-103.095389
CDS,Childress,United States,Childress,34.433778,-100.288
CDU,Camden,Australia,Camden,-34.040278,150.687222
CDV,Mudhole Smith,United States,Cordova,60.491778,-145.477556
CDW,Caldwell Wright,United States,"Caldwell, NJ",40.875223,-74.281357
CDY,Cagayan De Sulu,Philippines,Cagayan De Sulu,7.014,118.496
CDZ,Cadiz,Spain,Cadiz,36.533611111111,-6.299444444444
CEA,Cessna Aircraft Field,United States,Wichita,37.648598,-97.250599
CEB,Mactan-Cebu International,Philippines,Cebu,10.307542,123.979439
CEC,Mc Namara Fld,United States,Crescent City,41.780167,-124.236528
CED,Ceduna,Australia,Ceduna,-32.130556,133.709722
CEE,Cherepovets,Russian Federation,Cherepovets,59.273611,38.015833
CEF,Westover Metro Arpt,United States,Springfield,42.194014,-72.534783
CEG,Chester,United Kingdom,Chester,53.178056,-2.977778
CEH,Chelinda,Malawi,Chelinda,-10.583333333333,33.8
CEI,Chiang Rai,Thailand,Chiang Rai,19.952342,99.882928
CEJ,Chernigov,Ukraine,Chernigov,51.5,31.3
CEK,Chelyabinsk,Russian Federation,Chelyabinsk,55.305836,61.503333
CEL,Cape Eleuthera,Bahamas,Cape Eleuthera,24.958333333333,-76.45
CEM,Central,United States,Central,65.573944,-144.780889
CEN,Ciudad Obregon,Mexico,Ciudad Obregon,27.392639,-109.833111
CEO,Waco Kungo,Angola,Waco Kungo,-11.426389,15.101389
CEP,Concepcion,Bolivia,Concepcion,-16.143056,-62.026111
CEQ,Mandelieu,France,Cannes,43.546389,6.954167
CER,Maupertus,France,Cherbourg,49.650833,-1.475278
CES,Cessnock,Australia,Cessnock,-32.7875,151.341667
CET,Le Pontreau,France,Cholet,47.081906,-0.877217
CEU,Oconee County,United States,Clemson,34.671917,-82.886806
CEV,Mettle Field,United States,Connersville,39.698494,-85.129697
CEW,Bob Sikes,United States,Crestview,30.778833,-86.522111
CEX,Chena Hot Springs,United States,Chena Hot Springs,65.051826,-146.047432
CEY,Calloway County,United States,Murray,36.664583,-88.372778
CEZ,Montezuma County,United States,Cortez,37.303,-108.628056
CFA,Coffee Point,United States,Coffee Point,58.230555555556,-157.5
CFB,Cabo Frio,Brazil,Cabo Frio,-22.921681,-42.074269
CFC,Cacador,Brazil,Cacador,-26.783333333333,-51.0
CFD,Coulter Field,Jamaica,Bryan,30.715694,-96.331361
CFE,Aulnat,France,Clermont-Ferrand,45.785833,3.1625
CFF,Cafunfo,Angola,Cafunfo,-8.783611,17.989722
CFG,Cienfuegos,Cuba,Cienfuegos,22.15,-80.414167
CFH,Clifton Hills,Australia,Clifton Hills,-27.015,138.892222
CFI,Camfield,Australia,Camfield,-17.019722,131.329722
CFK,Chefornak,United States,"Chefornak, AK",60.149226,-164.285632
CFN,Donegal,Ireland,Carrickfinn,55.044192,-8.341
CFO,Confreza,Brazil,Confreza,-10.634444,-51.563611
CFP,Carpentaria Downs,Australia,Carpentaria Downs,-18.717778,144.3125
CFQ,Creston Valley Airport,Canada,Creston,49.036944444444,-116.49833333333
CFR,Carpiquet,France,Caen,49.173281,-0.449875
CFS,Coffs Harbour,Australia,Coffs Harbour,-30.320556,153.116389
CFT,Morenci,United States,Clifton,32.957039,-109.211162
CFU,Ioannis Kapodistrias,Greece,Kerkyra,39.601944,19.911667
CFV,Municipal,United States,Coffeyville,37.094048,-95.571894
CGA,Craig SPB,United States,Craig,55.478831,-133.1478
CGB,Intl. Airpt. Marechal Rondon,Brazil,Cuiaba,-15.652931,-56.116719
CGC,Cape Gloucester,Papua New Guinea,Cape Gloucester,-5.45,148.417
CGD,Changde,China,Changde,28.918889,111.640278
CGE,Cambridge,United States,Cambridge,38.539333,-76.030389
CGF,Cuyahoga County,United States,Cleveland,41.565111,-81.486361
CGG,Casiguran,Philippines,Casiguran,0.0,0.0
CGH,Congonhas,Brazil,Sao Paulo,-23.626692,-46.655375
CGI,Cape Girardeau,United States,Cape Girardeau,37.225317,-89.570752
CGJ,Chingola,Zambia,Chingola,-12.547,27.855
CGM,Mambajao,Philippines,Camiguin,9.253525,124.707075
CGN,Cologne/bonn,Germany,Cologne,50.866,7.143
CGO,Zhengzhou,China,Zhengzhou,34.519672,113.840889
CGP,Patenga,Bangladesh,Chittagong,22.249611,91.813286
CGQ,Changchun,China,Changchun,43.996214,125.685356
CGR,Intl. Airport Campo Grande,Brazil,Campo Grande,-20.468667,-54.6725
CGS,College Park,United States,College Park,38.980583,-76.922306
CGT,Chinguitti,Mauritania,Chinguitti,20.483,-12.383
CGU,Ciudad Guayana,Venezuela,Ciudad Guayana,8.3,-62.733
CGV,Caiguna,Australia,Caiguna,-32.280555,125.477222
CGX,Merrill C Meigs (closed),United States,Chicago,41.858888888889,-87.608333333333
CGY,Cagayan De Oro Domestic Airport,Philippines,Cagayan De Oro,8.415619,124.611219
CGZ,Municipal,United States,Casa Grande,32.954889,-111.766833
CHA,Lovell Field,United States,"Chattanooga,TN",35.035194,-85.203556
CHB,Chilas,Pakistan,Chilas,35.426666,74.081665
CHC,Christchurch International,New Zealand,Christchurch,-43.489444,172.534444
CHD,Williams Gateway Airport,United States,Mesa,33.307777777778,-111.65555555556
CHE,Reenroe,Ireland,Caherciveen,51.95,-10.217
CHF,Jinhae,Korea (South),Jinhae,35.141175,128.695792
CHG,Chaoyang Airport,China,Chaoyang,41.538056,120.435
CHH,Chachapoyas,Peru,Chachapoyas,-6.201806,-77.856064
CHI,Chicago FSS,United States,Chicago,41.883,-87.631
CHJ,Chipinge,Zimbabwe,Chipinge,-20.206667,32.628332
CHK,Municipal,United States,Chickasha,35.097361,-97.967694
CHL,Challis,United States,Challis,44.523583,-114.217917
CHM,Chimbote,Peru,Chimbote,-9.149614,-78.52385
CHN,Jeonju,Korea (South),Jeonju,35.878436,127.11955
CHO,Albemarle,United States,Charlottesville,38.138639,-78.452861
CHP,Circle Hot Springs,United States,Circle Hot Springs,65.485472,-144.610784
CHQ,Souda,Greece,Chania,35.531747,24.149678
CHR,Chateauroux,France,Chateauroux,46.860278,1.721111
CHS,"Charleston,  AFB Municipal",United States,"Charleston, SC",32.898639,-80.040528
CHT,Karewa,New Zealand,Chatham Island,-43.809999,-176.457222
CHU,Chuathbaluk,United States,Chuathbaluk,61.579056,-159.215639
CHV,Chaves,Portugal,Chaves,41.725834,-7.465556
CHW,Jiuhuang,China,Jiuquan,39.856944,98.341389
CHX,Changuinola,Panama,Changuinola,9.458636,-82.516806
CHY,Choiseul Bay,Solomon Islands,Choiseul Bay,-6.711944,156.396111
CHZ,State,United States,Chiloquin,42.583192,-121.876126
CIA,Ciampino,Italy,Rome,41.799361,12.594936
CIB,Ap In The Sky,United States,Catalina Island,33.404997,-118.415769
CIC,Chico,United States,Chico,39.795389,-121.858417
CID,Cedar Rapids,United States,Cedar Rapids,41.885085,-91.712288
CIE,Collie,Australia,Collie,-33.359721,116.201667
CIF,Chifeng,China,Chifeng,42.235,118.908333
CIG,Craig-Moffat,United States,Craig,40.495221,-107.521647
CIH,Changzhi,China,Changzhi,36.2475,113.125833
CIJ,E. Beltram,Brazil,Cobija,-11.040436,-68.782972
CIK,Chalkyitsik,United States,Chalkyitsik,66.645022,-143.73993
CIL,Melsing Creek,United States,Council,64.897882,-163.703447
CIM,Cimitarra,Colombia,Cimitarra,6.367,-73.967
CIN,Carroll,United States,Carroll,42.046194,-94.789
CIO,MCAL Lopez,Colombia,Concepcion,4.066666666667,-73.733333333333
CIP,Chipata,Zambia,Chipata,-13.560278,32.587778
CIQ,Chiquimula,Guatemala,Chiquimula,14.817,-89.517
CIR,Cairo,United States,Cairo,37.064472,-89.219611
CIS,Canton Island,Kiribati,Canton Island,-2.768122,-171.710394
CIT,Shimkent,Kazakhstan,Shimkent,42.364167,69.478889
CIU,Chippewa County,United States,Sault Ste Marie,46.25075,-84.472389
CIV,Chomley,United States,Chomley,55.216666666667,-132.21666666667
CIW,Canouan Island,Saint Vincent and the Grenadines,Canouan Island,12.699167,-61.3425
CIX,Cornel Ruiz,Peru,Chiclayo,-6.787475,-79.828097
CIY,Comiso,Italy,Comiso,36.995278,14.608056
CIZ,Coari,Brazil,Coari,-4.134056,-63.132556
CJA,Cajamarca,Peru,Cajamarca,-7.139183,-78.4894
CJB,Peelamedu,India,Coimbatore,11.030031,77.043383
CJC,El Loa,Chile,Calama,-22.498175,-68.903575
CJD,Candilejas,Colombia,Candilejas,1.333,-74.267
CJH,Chilko Lake,United Kingdom,Chilko Lake,51.626106,-124.141945
CJI,Ciudad Real - Don Quijote Airport,Spain,Ciudad Real,24.033333333333,-54.1
CJJ,Cheongju,Korea (South),Cheongju,36.7166,127.499119
CJL,Chitral,Pakistan,Chitral,35.886592,71.800578
CJM,Chumphon Airport,Thailand,Chumphon,10.7112,99.361706
CJN,Gillespie Field,United States,"San Diego/El Cajon, CA",32.826111111111,-116.9725
CJS,Intl Abraham Gonzalez,Mexico,Ciudad Juarez,31.636133,-106.428667
CJT,Copalar,Mexico,Comitan,16.176592,-92.050356
CJU,Jeju Airport,Korea (South),Jeju,33.511305,126.493028
CKA,Kegelman Af,Bahamas,Cherokee,36.75,-98.116667
CKB,Benedum,United States,Clarksburg,39.296639,-80.228083
CKC,Cherkassy,Ukraine,Cherkassy,49.415569,31.995292
CKD,Crooked Creek,United States,Crooked Creek,61.867861,-158.134917
CKE,Clear Lake,United States,Clear Lake,39.002952,-122.796935
CKG,Chongqing Jiangbei International,China,Chongqing,29.719217,106.641678
CKH,Chokurdah,Russian Federation,Chokurdah,70.623056,147.901667
CKI,Croker Island,Australia,Croker Island,-11.163611,132.483056
CKK,Cherokee,United States,Cherokee,36.283333333333,-91.5
CKL,Chkalovsky,Russian Federation,Chkalovsky,51.75,55.383333333333
CKM,Fletcher Field,United States,Clarksdale,34.299722,-90.512306
CKN,Municipal,United States,Crookston,47.841657,-96.621454
CKO,Cornelio Procopio,Brazil,Cornelio Procopio,-23.152508,-50.602511
CKR,Crane Island,United States,Crane Island,48.6,-123.0
CKS,Carajas,Brazil,Carajas,-6.117806,-50.003472
CKT,Sarakhs,Iran,Sarakhs,36.501178,61.064903
CKU,City,United States,Cordova,60.543903,-145.726704
CKV,Outlaw Field,United States,Clarksville,36.621881,-87.414954
CKX,Chicken,United States,Chicken,64.071338,-141.952279
CKY,Conakry,Guinea,Conakry,9.576889,-13.611961
CKZ,Canakkale,Turkey,Canakkale,40.137722,26.426777
CLA,Comilla,Bangladesh,Comilla,23.433,91.183
CLB,Castlebar,Ireland,Castlebar,53.848465,-9.280306
CLC,Metroport,United States,Clearlake,29.5575,-95.139166666667
CLD,Mc Clellan-Palomar Airport,United States,"Carlsbad, CA",33.12825,-117.280083
CLE,Hopkins International,United States,Cleveland,41.409417,-81.85498
CLG,Coalinga,United States,Coalinga,36.163139,-120.293814
CLH,Coolah,Australia,Coolah,-31.773333,149.610001
CLI,Clintonville,United States,Clintonville,44.613279,-88.730698
CLJ,Cluj Napoca International Airport,Romania,Cluj-Napoca,46.785092,23.686119
CLK,Municipal,United States,Clinton,35.538272,-98.932789
CLL,Easterwood Field,United States,"College Station, TX",30.588583,-96.363833
CLM,Fairchild Intl,United States,Port Angeles,48.120194,-123.499694
CLN,Carolina,Brazil,Carolina,-7.320444,-47.458667
CLO,Alfonso B. Aragon,Colombia,Cali,3.543056,-76.381667
CLP,Clarks Point,United States,Clarks Point,58.833694,-158.529389
CLQ,Colima,Mexico,Colima,19.277011,-103.577397
CLR,Calipatria,United States,Calipatria,33.131332,-115.521389
CLS,Centralia,United States,Chehalis,46.677029,-122.982747
CLT,Charlotte Douglas,United States,Charlotte,35.213741,-80.949069
CLU,Columbus Municipal,United States,Columbus,39.261917,-85.896333
CLV,Caldas Novas,Brazil,Caldas Novas,-17.72525,-48.607492
CLW,Executive,Canada,Clearwater,27.976686,-82.75874
CLX,Clorinda,Paraguay,Clorinda,-25.303889,-57.733889
CLY,Ste Catherine,France,Calvi,42.520364,8.793028
CLZ,Calabozo,Venezuela,Calabozo,8.924656,-67.417094
CMA,Cunnamulla,Australia,Cunnamulla,-28.03,145.622222
CMB,Bandaranayake,Sri Lanka,Colombo,7.180756,79.884117
CMC,Camocim,Brazil,Camocim,-2.896183,-40.857994
CMD,Cootamundra,Australia,Cootamundra,-34.623889,148.028056
CME,Ciudad Del Carmen,Mexico,Ciudad Del Carmen,18.653739,-91.799017
CMF,Chambery,France,Chambery,45.639167,5.88
CMG,Intl. Airport Corumba,Brazil,Corumba,-19.011931,-57.673053
CMH,Port Columbus Intl,United States,Columbus,39.997972,-82.891889
CMI,University Of Illinois Willard,United States,Champaign,40.038833,-88.277806
CMJ,Chi Mei,Taiwan,Chi Mei,23.213056,119.4175
CMK,Club Makokola,Malawi,Club Makokola,-14.306944,35.1325
CML,Camooweal,Australia,Camooweal,-19.912499,138.125
CMM,Carmelita,Guatemala,Carmelita,17.45,-90.05
CMN,Mohamed V,Morocco,Casablanca,33.367466,-7.589967
CMO,Obbia,Ethiopia,Obbia,5.293,48.439
CMP,Campo Alegre,Brazil,Santana Do Araguaia,-9.319975,-50.328542
CMQ,Clermont,Australia,Clermont,-22.773056,147.620556
CMR,Colmar-houssen,France,Colmar,48.11035,7.359147
CMS,Scusciuban,Ethiopia,Scusciuban,10.3,50.233
CMT,Cameta,Brazil,Cameta,-2.2425,-49.506667
CMU,Chimbu,Papua New Guinea,Kundiawa,-6.024292,144.970528
CMV,Coromandel,New Zealand,Coromandel,-36.791667,175.508611
CMW,Ign Agramonte Intl,Cuba,Camaguey,21.420428,-77.847433
CMX,Houghton County,United States,Hancock,47.168417,-88.489061
CMY,Fort Mccoy,United States,Sparta,43.958372,-90.737897
CMZ,Caia,Mozambique,Caia,-25.316666666667,32.966666666667
CNA,Cananea,Mexico,Cananea,31.0,-110.267
CNB,Coonamble,Australia,Coonamble,-30.983333,148.375556
CNC,Coconut Island,Australia,Coconut Island,-10.05,143.066667
CND,Kogalniceanu,Romania,Constanta,44.362222,28.488333
CNE,Canon City,United States,Canon City,38.428026,-105.105842
CNG,Parvaud,France,Cognac,45.658333,-0.3175
CNH,Municipal,United States,Claremont,43.370432,-72.368677
CNI,Changhai,China,Changhai,39.266389,122.666944
CNJ,Cloncurry,Australia,Cloncurry,-20.668611,140.504444
CNK,Blosser Municipal,United States,Concordia,39.549251,-97.652317
CNL,Sindal,Denmark,Sindal,57.503525,10.229372
CNM,Carlsbad,United States,Carlsbad,32.337472,-104.263278
CNN,Chulman,Russian Federation,Chulman,56.913917,124.913819
CNO,Chino,United States,Chino,33.974779,-117.636483
CNP,Neerlerit Inaat,Greenland,Neerlerit Inaat,70.743333,-22.660556
CNQ,Camba Punta,Argentina,Corrientes,-27.445503,-58.761864
CNR,Chanaral,Chile,Chanaral,-26.332542,-70.607308
CNS,Cairns,Australia,Cairns,-16.885833,145.755278
CNT,Charata,Argentina,Charata,-27.2,-61.2
CNU,Martin Johnson,United States,Chanute,37.668797,-95.485064
CNV,Canavieiras,Brazil,Canavieiras,-15.667028,-38.954667
CNW,TSTC Waco Airport,United States,"Waco, TX",31.637806,-97.074139
CNX,Chiang Mai International,Thailand,Chiang Mai,18.766847,98.962644
CNY,Canyonlands Field,United States,Moab,38.754956,-109.754844
CNZ,Cangamba,Angola,Cangamba,-13.710556,19.861111
COA,Columbia,United States,Columbia,38.030428,-120.414554
COB,Coolibah,Australia,Coolibah,-15.548333,130.961943
COC,Concordia,Argentina,Concordia,-31.296944,-57.996631
COD,Yellowstone Regional,United States,Cody/Yellowstone,44.520194,-109.023806
COF,Patrick AFB,United States,Cocoa,28.234963,-80.609985
COG,Mandinga,Colombia,Condoto,5.083333,-76.7
COH,Cooch Behar,India,Cooch Behar,26.330508,89.467203
COI,Merritt Island,United States,Cocoa,28.341611,-80.685472
COJ,Coonabarabran,Australia,Coonabarabran,-31.3325,149.267222
COK,Cochin International,India,Kochi,10.151994,76.401906
COL,Isle Of Coll,United Kingdom,Isle Of Coll,56.6,-6.617
COM,Coleman,United States,Coleman,31.841139,-99.403611
CON,Concord,United States,Concord,43.202722,-71.502278
COO,Cotonou,Benin,Cotonou,6.357228,2.384353
COP,Cooperstown - Westville Airport,United States,"Cooperstown, NY",42.629242,-74.890988
COQ,Choibalsan,Mongolia,Choibalsan,48.135672,114.646378
COR,Pajas Blancas,Argentina,Cordoba,-31.323619,-64.207953
COS,Colorado Springs,United States,Colorado Springs,38.805806,-104.700778
COT,Cotulla,United States,Cotulla,28.456694,-99.218333
COU,Columbia Regional,United States,Columbia,38.818093,-92.219629
COV,Covilha,Portugal,Covilha,40.264772,-7.479958
COW,Coquimbo,Uruguay,Coquimbo,-29.967,-71.333
COX,Congo Town,Bahamas,Congo Town,24.158933,-77.589758
COY,Coolawanyah,Australia,Coolawanyah,-21.794444,117.754722
COZ,Constanza,Dominican Republic,Constanza,18.9,-70.717
CPA,A. Tubman,Liberia,Cape Palmas,4.367638,-7.700117
CPB,Capurgana,Colombia,Capurgana,8.633333,-77.333333
CPC,Chapelco,Argentina,San Martin DeLos Andes,-40.075383,-71.137294
CPD,Coober Pedy,Australia,Coober Pedy,-29.04,134.720833
CPE,Campeche International,Mexico,Campeche,19.816794,-90.500314
CPF,Cepu,Indonesia,Cepu,-7.183,111.533
CPG,Carmen De Patagones,Argentina,Carmen De Patagones,-40.778056,-62.980278
CPH,Kastrup,Denmark,Copenhagen,55.617917,12.655972
CPI,Cape Orford,Papua New Guinea,Cape Orford,-52.0,-61.066666666667
CPL,Chaparral,Colombia,Chaparral,3.717,-75.467
CPM,Compton,United States,Compton,33.890016,-118.243683
CPN,Cape Rodney,Papua New Guinea,Cape Rodney,-10.167,148.367
CPO,Chamonate,Chile,Copiapo,-27.261247,-70.779222
CPQ,International,Brazil,Campinas,-22.859242,-47.108183
CPR,Casper,United States,Casper,42.908,-106.464417
CPS,St. Louis Downtown Airport,United States,"St Louis, Il",38.570724,-90.156221
CPT,Cape Town International,South Africa,Cape Town,-33.964806,18.601667
CPU,Cururupu,Brazil,Cururupu,-1.793333,-44.847222
CPV,Joao Suassuna,Brazil,Campina Grande,-7.269917,-35.896364
CPX,Culebra,Puerto Rico,Culebra,18.313289,-65.304323
CQA,Canarana Airport,Brazil,Canarana,40.484278,-84.558194
CQD,Shahre-kord,Iran,Shahre-kord,32.297221,50.842222
CQF,Calais,France,Calais,50.960933,1.951433
CQP,Cape Flattery,Australia,Cape Flattery,-14.970833,145.311667
CQS,Costa Marques,Brazil,Costa Marques,-12.421061,-64.251644
CQT,Caquetania,Colombia,Caquetania,1.617,-74.2
CRA,Craiova,Romania,Craiova,44.318139,23.888611
CRB,Collarenebri,Australia,Collarenebri,-29.521944,148.58223
CRC,Cartago,Colombia,Cartago,4.758181,-75.955753
CRD,Comodoro Rivadavia,Argentina,Comodoro Rivadavia,-45.785347,-67.465508
CRE,Grand Strand Airport,United States,Myrtle Beach,33.81175,-78.723944
CRF,Carnot,Central African Republic,Carnot,4.937,15.894
CRG,Craig Municipal,United States,Jacksonville,30.336333,-81.514444
CRH,Cherribah,Australia,Cherribah,-27.65,151.95
CRI,Crooked Island,Turks and Caicos Islands,Crooked Island,22.745561,-74.182353
CRJ,Coorabie,Australia,Coorabie,-31.894444,132.296389
CRK,Diosdado Macapagal International (Clark Int),Philippines,Angeles City,15.185989,120.560325
CRL,Charleroi Brussels South,Belgium,Brussels,50.46,4.452778
CRM,National,Philippines,Catarman,12.502417,124.635778
CRN,Cromarty,United Kingdom,Cromarty,57.667,-4.033
CRO,Corcoran,United States,Corcoran,36.102639,-119.594667
CRP,Corpus Christi International Airport,United States,"Corpus Christi, TX",27.770361,-97.501222
CRQ,Caravelas,Brazil,Caravelas,-17.652283,-39.253069
CRR,Ceres,Argentina,Ceres,-29.883,-61.95
CRS,Corsicana,United States,Corsicana,32.028056,-96.400583
CRT,Municipal,United States,Crossett,33.178333,-91.880188
CRU,Carriacou Is,Saint Vincent and the Grenadines,Carriacou Is,12.476944,-61.472222
CRV,Crotone,Italy,Crotone,38.997225,17.080169
CRW,Yeager,United States,Charleston,38.373139,-81.593194
CRX,Roscoe Turner,United States,Corinth,34.914968,-88.603484
CRY,Carlton Hill,Australia,Carlton Hill,-15.501944,128.533888
CRZ,Turkmenabad,Turkmenistan,Turkmenabad,39.083333,63.613333
CSA,Isle Of Colonsay,United Kingdom,Isle Of Colonsay,56.059,-6.244
CSB,Caransebes,Romania,Caransebes,45.42,22.253333
CSC,Canas,Costa Rica,Canas,10.433,-85.1
CSD,Cresswell Downs,Australia,Cresswell Downs,-17.948,135.916
CSE,Crested Butte,United States,Crested Butte,38.851937,-106.932821
CSF,Creil,France,Creil,49.253611,2.519167
CSH,Solovky,Russian Federation,Solovetsky,65.029444,35.733333
CSI,David,United States,Phoenix,-28.882778,153.066944
CSJ,Cape St Jacques,Vietnam,Cape St Jacques,10.35,107.067
CSK,Cap Skirring,Senegal,Cap Skirring,12.4102,-16.746125
CSM,Sherman,United States,Clinton,35.339839,-99.200499
CSN,Carson City,United States,Carson City,39.192306,-119.732583
CSO,Cochstedt,Germany,Cochstedt,51.854992,11.418889
CSP,Coast Guard Heliport,Canada,Cape Spencer,58.199069,-136.638811
CSQ,Municipal,United States,Creston,41.021444,-94.363306
CSR,Casuarito,Colombia,Casuarito,5.833,-68.133
CSS,Cassilandia,Brazil,Cassilandia,-19.144167,-51.688333
CST,Castaway,Fiji,Castaway,-17.733333,177.126944
CSU,Santa Cruz Do Sul,Brazil,Santa Cruz Do Sul,-29.716666666667,-52.433333333333
CSV,Memorial,United States,Crossville,35.951292,-85.084978
CSW,Colorado do Oeste,Brazil,Colorado do Oeste,-13.017,-61.167
CSX,Changsha,China,Changsha,28.069167,112.957222
CSY,Cheboksary,Russian Federation,Cheboksary,56.090269,47.34725
CSZ,Brig D Hector Eduardo Ruiz,Argentina,Coronel Suarez,-37.446111,-61.889297
CTA,Fontanarossa,Italy,Catania,37.466781,15.0664
CTB,Cut Bank,United States,Cut Bank,48.608354,-112.376146
CTC,Catamarca,Argentina,Catamarca,-28.593214,-65.750924
CTD,Chitre,Panama,Chitre,7.987836,-80.409739
CTE,Carti,Panama,Carti,9.45,-78.967
CTF,Coatepeque Airport,Guatemala,Coatepeque,14.694167,-91.8825
CTG,Rafael Nunez,Colombia,Cartagena,10.4425,-75.512778
CTH,Chestercounty Carlson,United States,Coatesville,39.978972,-75.865472
CTI,Cuito Cuanavale,Angola,Cuito Cuanavale,-15.160278,19.156111
CTK,Canton,United States,Canton,43.308889,-96.571
CTL,Charleville,Australia,Charleville,-26.413334,146.2625
CTM,Chetumal,Belize,Chetumal,18.504667,-88.326847
CTN,Cooktown,Australia,Cooktown,-15.444722,145.184444
CTO,Peconic River,United States,Calverton,40.915098,-72.791906
CTP,Carutapera,Brazil,Carutapera,-1.250277,-46.017223
CTQ,Do Palmar,Brazil,Santa Vitoria,-33.501666,-53.345
CTR,Cattle Creek,Australia,Cattle Creek,-17.6075,131.549722
CTS,New Chitose Airport,Japan,Sapporo,42.7752,141.692283
CTT,Le Castellet,France,Le Castellet,43.252222,5.786111
CTU,Shuangliu,China,Chengdu,30.578528,103.947086
CTW,Cottonwood,United States,Cottonwood,34.730056,-112.035111
CTX,Cortland,United States,Cortland,42.592645,-76.214883
CTY,Cross City,United States,Cross City,29.635528,-83.10475
CTZ,Sampson County,United States,Clinton,34.974939,-78.365629
CUA,Ciudad Constitucion,Mexico,Ciudad Constitucion,25.053756,-111.614883
CUB,Owens Field,United States,Columbia,33.970472,-80.99525
CUC,Camilo Dazo,Colombia,Cucuta,7.931389,-72.514167
CUD,Caloundra,Australia,Caloundra,-26.803333,153.105
CUE,Cuenca,Ecuador,Cuenca,-2.889467,-78.984397
CUF,Levaldigi,Italy,Cuneo,44.547019,7.623217
CUG,Cudal,Australia,Cudal,-33.277777,148.763056
CUH,Municipal,United States,Cushing,35.949925,-96.773053
CUI,Currillo,Colombia,Currillo,4.667,-72.0
CUJ,Culion,Philippines,Culion,11.85,119.933
CUK,Caye Caulker,Belize,Caye Caulker,17.734722,-88.0325
CUL,Fedl De Bachigualato,Mexico,Culiacan,24.764547,-107.474717
CUM,Cumana,Venezuela,Cumana,10.450333,-64.130472
CUN,Cancъn International,Mexico,Cancun,21.036528,-86.877083
CUO,Caruru,Colombia,Caruru,0.924993,-70.771111
CUP,Carupano,Venezuela,Carupano,10.660014,-63.261681
CUQ,Coen,Australia,Coen,-13.760833,143.113611
CUR,Hato International Airport,Netherlands Antilles,Curacao,12.188853,-68.959803
CUS,Municipal,United States,Columbus,31.823711,-107.626967
CUT,Cutral,Argentina,Cutral,-38.939683,-69.264642
CUU,Gen Fierro Villalobos,Mexico,Chihuahua,28.702875,-105.964567
CUV,Casigua,Venezuela,Casigua,8.756389,-72.536589
CUW,Cube Cove,United States,Cube Cove,58.35,-133.76666666667
CUX,Cuddihy Field,United States,Corpus Christi,27.72114,-97.512771
CUY,Cue,Australia,Cue,-27.451667,117.9175
CUZ,Velazco Astete,Peru,Cuzco,-13.535722,-71.938781
CVA,Civic Ar Heli,United States,Pittsburgh,0.0,0.0
CVB,Chungribu,Papua New Guinea,Chungribu,-4.8,144.7
CVC,Cleve,Australia,Cleve,-33.709722,136.504722
CVE,Covenas,Colombia,Covenas,9.400925,-75.691317
CVF,Courchevel,France,Courchevel,45.396667,6.633611
CVG,Cincinnati/northern Kentucky,United States,"Covington, KY",39.048837,-84.667822
CVH,Caviahue,Argentina,Caviahue,-37.851375,-71.009247
CVI,Caleta Olivia,Argentina,Caleta Olivia,-46.433,-67.517
CVJ,General Mariano Matamoros Airport,Mexico,Cuernavaca,18.834764,-99.2613
CVL,Cape Vogel,Papua New Guinea,Cape Vogel,-9.667,150.017
CVM,Ciudad Victoria,Mexico,Ciudad Victoria,23.703336,-98.956486
CVN,Municipal,United States,Clovis,34.425139,-103.079278
CVO,Albany,United States,Albany,44.497111,-123.289528
CVQ,Carnarvon,Australia,Carnarvon,-24.880556,113.672222
CVR,Hughes,United States,Culver City,34.016666666667,-118.4
CVS,Cannon AFB,United States,Clovis,34.382855,-103.322175
CVT,West Midlands International,United Kingdom,Coventry,52.369722,-1.479722
CVU,Corvo Island,Portugal,Corvo Island,39.671389,-31.116667
CWA,Central Wisconsin,United States,Wausau,44.777624,-89.666778
CWB,Afonso Pena International Airport,Brazil,Curitiba,-25.528475,-49.175775
CWC,Chernovtsy,Ukraine,Chernovtsy,48.259322,25.980831
CWG,Callaway Gardens,United States,Callaway Gardens,32.833333333333,-84.883333333333
CWI,Clinton,United States,Clinton,41.831111,-90.329139
CWL,Cardiff-wales Arpt,United Kingdom,Cardiff,51.396667,-3.343333
CWO,Ft Wolter AAF,Indonesia,Mineral Wells,-5.133333333333,137.53333333333
CWP,Campbellpore,Pakistan,Campbellpore,33.867,72.4
CWR,Cowarie,Australia,Cowarie,-27.712778,138.328056
CWS,Center Island,China,Center Island,48.490101,-122.832121
CWT,Cowra,Australia,Cowra,-33.844722,148.648889
CWW,Corowa,Australia,Corowa,-35.994722,146.356667
CXA,Caicara Del Orinoco,Venezuela,Caicara Del Orinoco,7.626078,-66.164917
CXC,Chitina Arpt,United States,Chitina,61.582859,-144.427097
CXF,Coldfoot,United States,Coldfoot,67.252179,-150.203878
CXH,Coal Harbour,Canada,Vancouver,49.289722,-123.115833
CXI,Cassidy International Airport,Kiribati,Christmas Island,1.986161,-157.349778
CXJ,Campo Dos Bugres,Brazil,Caxias Do Sul,-29.197064,-51.187536
CXL,International,United States,Calexico,32.669503,-115.513328
CXN,Candala,Somalia,Candala,11.5,49.917
CXO,Montgomery Co,United States,Conroe,30.352361,-95.414528
CXP,Tunggul Wulung,Indonesia,Cilacap,-7.645056,109.033911
CXQ,Christmas Creek,Australia,Christmas Creek,-18.883,125.917
CXR,Nah Trang (No longer in operation),Vietnam,Nha Trang,11.998153,109.219372
CXT,Charters Towers,Australia,Charters Towers,-20.043056,146.273056
CXY,Cat Cays,Bahamas,Cat Cays,25.568,-79.292
CYA,Les Cayes,Haiti,Les Cayes,18.271103,-73.788289
CYB,Gerrard-Smith,Cayman Islands,Cayman Brac Is,19.686981,-79.882789
CYC,Caye Chapel,Belize,Caye Chapel,17.700833,-88.041111
CYE,Crystal Lake,United States,Crystal Lake,41.210277777778,-75.832222222222
CYF,Chefornak SPB,United States,Chefornak,60.149226,-164.285632
CYG,Corryong,Australia,Corryong,-36.182778,147.887778
CYI,Chiayi,Taiwan,Chiayi,23.461779,120.39283
CYL,Coyoles,Honduras,Coyoles,15.433,-86.667
CYM,Chatham SPB,Canada,Chatham,57.514938,-134.946215
CYO,Cayo Largo Del Sur,Cuba,Cayo Largo Del Sur,21.616453,-81.545989
CYP,Calbayog,Philippines,Calbayog,12.072706,124.545092
CYR,Laguna De Los Patos,Uruguay,Colonia,-34.456408,-57.770617
CYS,Cheyenne,United States,Cheyenne,41.155639,-104.810472
CYT,Intermediate,United States,Yakataga,60.082012,-142.493485
CYU,Cuyo,Philippines,Cuyo,10.858056,121.069444
CYX,Yakut,Russian Federation,Cherskiy,68.740556,161.338333
CYZ,Cauayan,Philippines,Cauayan,16.929861,121.753036
CZA,Chichen Itza,Mexico,Chichen Itza,20.641294,-88.446219
CZB,Carlos Ruhl,Brazil,Cruz Alta,-28.717,-53.633
CZC,Copper Centre,Italy,Copper Centre,61.94119,-145.294081
CZE,Coro,Venezuela,Coro,11.414867,-69.681656
CZF,Cape Romanzof,United States,Cape Romanzof,61.781808,-166.036965
CZH,Corozal,Belize,Corozal,18.367,-88.4
CZJ,Corazon De Jesus,Panama,Corazon De Jesus,9.433,-78.583
CZK,Cascade Locks/Stevens,United States,Cascade Locks,45.676944,-121.878889
CZL,Ain El Bey,Algeria,Constantine,36.285278,6.619167
CZM,Cozumel,Mexico,Cozumel,20.522403,-86.925644
CZN,Chisana Field,United States,Chisana,62.07119,-142.048374
CZO,Chistochina,United States,Chistochina,62.563473,-144.668836
CZP,Cape Pole,United States,Cape Pole,55.96629,-133.79672
CZS,Intl. Airpt. Cruzeiro Do Sul,Brazil,Cruzeiro Do Sul,-7.599906,-72.769489
CZT,Carrizo Springs,United States,Carrizo Springs,28.522251,-99.823635
CZU,Corozal,Colombia,Corozal,9.333333,-75.283333
CZW,Czestochowa,Poland,Czestochowa,50.885,19.204722
CZX,Changzhou,China,Changzhou,31.919722,119.778611
CZY,Cluny,Australia,Cluny,-24.511389,139.6175
CZZ,Campo,Haiti,Campo,18.45,-72.1
DAA,Davison AAF,United States,Fort Belvoir,38.715,-77.181
DAB,Regional,United States,Daytona Beach,29.179917,-81.058056
DAC,Zia International,Bangladesh,Dhaka,23.843333,90.397781
DAD,Da Nang,Vietnam,Da Nang,16.043917,108.19937
DAE,Daparizo,India,Daparizo,27.985,94.223
DAF,Daup,Papua New Guinea,Daup,-4.917,145.967
DAG,Barstow-Daggett,United States,Daggett,34.853722,-116.786694
DAH,Dathina,Yemen,Dathina,13.867,46.133
DAI,Darjeeling,India,Darjeeling,26.75,88.25
DAJ,Dauan Island,Australia,Dauan Island,-9.418,142.542
DAK,Dakhla,Egypt,Dakhla Oasis,25.411608,29.003058
DAL,Love Field,United States,Dallas,32.847111,-96.851778
DAM,International,Syria,Damascus,33.410635,36.514267
DAN,Municipal,United States,Danville,36.572861,-79.336111
DAO,Dabo,Eritrea,Dabo,13.133333333333,42.166666666667
DAP,Darchula,Nepal,Darchula,29.669186,80.548416
DAR,International,Tanzania,Dar Es Salaam,-6.878111,39.202625
DAS,Great Bear Lake,Canada,Great Bear Lake,66.0,-1.0
DAT,Datong,China,Datong,40.060278,113.482222
DAU,Daru,Papua New Guinea,Daru,-9.086756,143.207939
DAV,Enrique Malek,Panama,David,8.391003,-82.434992
DAX,Daxian,China,Daxian,31.3,107.5
DAY,James Cox Dayton Intl,United States,"Dayton, Oh",39.902251,-84.21941
DAZ,Darwaz,Afghanistan,Darwaz,38.461703,70.881783
DBA,Dalbandin,Pakistan,Dalbandin,28.875278,64.403889
DBB,Alalamain Intl.,Egypt,Dabaa City,30.15,28.083333333333
DBD,Dhanbad,India,Dhanbad,23.834044,86.425261
DBM,Debra Marcos,Ethiopia,Debra Marcos,10.321111,37.741667
DBN,Municipal,United States,Dublin,32.564417,-82.985278
DBO,Dubbo,Australia,Dubbo,-32.216667,148.574722
DBP,Debepare,Papua New Guinea,Debepare,-6.3,141.9
DBQ,Municipal,United States,Dubuque,42.402,-90.709472
DBS,Dubois,United States,Dubois,44.162361,-112.220667
DBT,Debra Tabor,Ethiopia,Debra Tabor,11.967,38.0
DBU,Dambulu Oya Tank,Mozambique,Dambula,-21.522777777778,32.896111111111
DBV,Dubrovnik,Croatia,Dubrovnik,42.561353,18.268244
DBY,Dalby,Australia,Dalby,-27.155278,151.267222
DCA,Reagan Washington National,United States,"Washington, DC",38.852083,-77.037722
DCF,Cane Field,Dominica,Roseau,15.336719,-61.392211
DCI,Rafsu Decimomannu,Italy,Decimomannu,39.354222,8.972481
DCK,Dahl Creek Arpt,United States,Dahl Creek,66.943338,-156.904674
DCM,Mazamet,France,Castres,43.554961,2.290592
DCR,Decatur Hi-Way,United States,Decatur,40.837548,-84.862464
